# iata code; latitude; longitude; airport name
AAA;-17.3542;-145.4961;Anaa Airport;PF
AAC;31.0733;33.8358;El Arish International Airport;EG
AAE;36.8222;7.8094;Annaba Airport;DZ
AAF;29.7275;-85.0274;Apalachicola Regional Airport;US
AAG;-24.1036;-49.7900;Arapoti Airport;BR
AAL;57.0928;9.8492;Aalborg Airport;DK
AAM;-24.8181;31.5446;Malamala Airport;ZA
AAN;24.2617;55.6092;Al Ain International Airport;AE
AAQ;45.0017;37.3483;Anapa Vityazevo Airport;RU
AAR;56.3000;10.6190;Aarhus Airport;DK
AAT;47.7200;88.1500;Altay Air Base;CN
AAX;-19.5603;-46.9653;Romeu Zema Airport;BR
AAY;16.1917;52.1750;Al Ghaidah International Airport;YE
ABA;53.7417;91.3850;Abakan Airport;RU
ABB;6.1978;6.7285;Asaba International Airport;NG
ABC;38.9480;-1.8630;Albacete-Los Llanos Airport;ES
ABD;30.3667;48.2333;Abadan Airport;IR
ABE;40.6521;-75.4408;Lehigh Valley International Airport;US
ABH;-23.6583;146.5917;Alpha Airport;AU
ABI;32.4113;-99.6819;Abilene Regional Airport;US
ABJ;5.2544;-3.9286;Port Bouet Airport;CI
ABK;6.7340;44.2530;Kabri Dehar Airport;ET
ABL;67.1063;-157.8575;Ambler Airport;US
ABM;-10.9500;142.4600;Northern Peninsula Airport;AU
ABQ;35.0402;-106.6092;Albuquerque International Sunport Airport;US
ABR;45.4490;-98.4218;Aberdeen Regional Airport;US
ABS;22.3758;31.6117;Abu Simbel Airport;EG
ABT;20.2961;41.6342;Al Baha Airport;SA
ABV;9.0069;7.2631;Nnamdi Azikiwe International Airport;NG
ABX;-36.0689;146.9564;Albury Airport;AU
ABY;31.5369;-84.1945;Southwest Georgia Regional Airport;US
ABZ;57.2019;-2.1978;Aberdeen Dyce Airport;GB
ACA;16.7571;-99.7538;General Juan N Alvarez International Airport;MX
ACC;5.5964;-0.1700;Kotoka International Airport;GH
ACE;28.9455;-13.6052;Lanzarote Airport;ES
ACH;47.4850;9.5619;St Gallen Altenrhein Airport;CH
ACI;49.7061;-2.2147;Alderney Airport;GG
ACK;41.2531;-70.0602;Nantucket Memorial Airport;US
ACP;37.7333;46.4500;Sahand Airport;IR
ACR;0.6007;-72.3980;Araracuara Airport;CO
ACT;31.6113;-97.2305;Waco Regional Airport;US
ACU;9.1830;-78.0170;Achutupo Airport;PA
ACV;40.9781;-124.1086;Arcata Airport;US
ACX;25.0500;104.9833;Xingyi Airport;CN
ACY;39.4576;-74.5772;Atlantic City International Airport;US
ACZ;31.0983;61.5439;Zabol Airport;IR
ADA;36.9825;35.2831;Adana Airport;TR
ADB;38.2892;27.1550;Adnan Menderes International Airport;TR
ADD;8.9750;38.7994;Addis Ababa Bole International Airport;ET
ADE;12.8289;45.0297;Aden International Airport;YE
ADF;37.7308;38.4689;Adıyaman Airport;TR
ADH;58.6000;125.4000;Aldan Airport;RU
ADJ;31.9727;35.9916;Amman-Marka International Airport;JO
ADK;51.8780;-176.6460;Adak Airport;US
ADL;-34.9450;138.5300;Adelaide International Airport;AU
ADP;8.3000;80.4767;Ampara Airport;LK
ADQ;57.7500;-152.4939;Kodiak Airport;US
ADS;32.9697;-96.8386;Addison Airport;US
ADU;38.3267;48.4242;Ardabil Airport;IR
ADW;38.8108;-76.8670;Andrews Air Force Base;US
ADX;56.3733;-2.8683;RAF Leuchars;GB
ADZ;12.5836;-81.7108;Gustavo Rojas Pinilla International Airport;CO
AEB;23.7200;106.9600;Baise Youjiang Airport;CN
AEG;1.4001;99.4305;Aek Godang Airport;ID
AEH;13.8472;20.8488;Abeche Airport;TD
AEO;16.7167;-9.6333;Aioun el Atrouss Airport;MR
AEP;-34.5589;-58.4164;Jorge Newbery Airpark;AR
AER;43.4450;39.9483;Sochi International Airport;RU
AES;62.5625;6.1197;Ålesund Airport;NO
AET;66.5518;-152.6222;Allakaket Airport;US
AEX;31.3274;-92.5486;Alexandria International Airport;US
AEY;65.6586;-18.0722;Akureyri Airport;IS
AFA;-34.5883;-68.4033;Suboficial Ay Santiago Germano Airport;AR
AFL;-9.8661;-56.1044;Piloto Osvaldo Marques Dias Airport;BR
AFS;41.6133;64.2328;Sugraly Airport;UZ
AFT;-9.1911;160.9492;Afutara Aerodrome;SB
AFW;32.9876;-97.3188;Fort Worth Alliance Airport;US
AFY;38.7339;30.5953;Afyon Airport;TR
AFZ;36.1681;57.5953;Sabzevar National Airport;IR
AGA;30.3250;-9.4131;Al Massira Airport;MA
AGB;48.4252;10.9318;Augsburg Airport;DE
AGC;40.3544;-79.9302;Allegheny County Airport;US
AGF;44.1747;0.5906;Agen-La Garenne Airport;FR
AGH;56.2911;12.8550;Ängelholm-Helsingborg Airport;SE
AGL;-9.3330;149.1500;Wanigela Airport;PG
AGM;65.6122;-37.6183;Tasiilaq Heliport;GL
AGN;57.5036;-134.5851;Angoon Seaplane Base;US
AGP;36.6750;-4.4992;Málaga Airport;ES
AGQ;38.6020;21.3512;Agrinion Air Base;GR
AGR;27.1500;77.9500;Agra Airport;IN
AGS;33.3367;-81.9645;Augusta Regional At Bush Field;US
AGT;-25.4558;-54.8437;Guarani International Airport;PY
AGU;21.7047;-102.3175;Jesús Terán Paredo International Airport;MX
AGV;9.5500;-69.2333;Oswaldo Guevara Mujica Airport;VE
AGX;10.8237;72.1760;Agatti Airport;IN
AGZ;-29.2792;18.8175;Aggeneys Airport;ZA
AHB;18.2404;42.6565;Abha Regional Airport;SA
AHE;-14.4278;-146.2550;Ahe Airport;PF
AHN;33.9486;-83.3263;Athens Ben Epps Airport;US
AHO;40.6322;8.2894;Alghero-Fertilia Airport;IT
AHS;15.4722;-84.3522;Ahuas Airport;HN
AHU;35.1806;-3.8317;Cherif Al Idrissi Airport;MA
AIA;42.0532;-102.8037;Alliance Municipal Airport;US
AIC;7.1000;171.2333;Ailinglaplap Airok Airport;MH
AID;40.1087;-85.6130;Anderson Municipal Darlington Field;US
AIF;-22.6394;-50.4525;Marcelo Pires Halzhausen Airport;BR
AIM;10.2000;169.9833;Ailuk Airport;MH
AIN;70.6380;-159.9948;Wainwright Airport;US
AIR;-10.2500;-59.3833;Aripuanã Airport;BR
AIT;-18.8309;-159.7642;Aitutaki Airport;CK
AIU;-19.9678;-158.1192;Enua Airport;CK
AJA;41.9239;8.8025;Ajaccio-Napoléon Bonaparte Airport;FR
AJF;29.7852;40.0996;Al-Jawf Domestic Airport;SA
AJI;39.6627;43.0232;Ağrı Airport;TR
AJL;23.7333;92.8000;Lengpui Airport;IN
AJN;-12.1317;44.4303;Ouani Airport;KM
AJR;65.5903;19.2819;Arvidsjaur Airport;SE
AJU;-10.9853;-37.0733;Santa Maria Airport;BR
AJY;16.9622;7.9903;Mano Dayak International Airport;NE
AKA;32.7081;108.9314;Ankang Wulipu Airport;CN
AKB;52.2203;-174.2063;Atka Airport;US
AKC;41.0375;-81.4669;Akron Fulton International Airport;US
AKD;20.6978;77.0589;Akola Airport;IN
AKF;24.1767;23.3150;Kufra Airport;LY
AKH;35.2026;-81.1498;Prince Sultan Air Base;SA
AKI;60.9029;-161.2306;Akiak Airport;US
AKJ;43.6707;142.4475;Asahikawa Airport;JP
AKK;56.9387;-154.1826;Akhiok Airport;US
AKL;-37.0081;174.7917;Auckland International Airport;NZ
AKN;58.6768;-156.6492;King Salmon Airport;US
AKP;68.1336;-151.7433;Anaktuvuk Pass Airport;US
AKR;7.2500;5.3042;Akure Airport;NG
AKS;-8.6978;160.6808;Auki Airport;SB
AKT;34.5903;32.9878;RAF Akrotiri;GB
AKU;41.2625;80.2917;Aksu Airport;CN
AKV;60.8186;-78.1486;Akulivik Airport;CA
AKX;50.2458;57.2067;Aktobe Airport;KZ
AKY;20.1329;92.8760;Sittwe Airport;MM
ALA;43.3519;77.0406;Almaty Airport;KZ
ALB;42.7483;-73.8017;Albany International Airport;US
ALC;38.2822;-0.5582;Alicante International Airport;ES
ALF;69.9761;23.3717;Alta Airport;NO
ALG;36.6944;3.2169;Houari Boumediene Airport;DZ
ALH;-34.9433;117.8083;Albany Airport;AU
ALI;27.7417;-98.0267;Alice International Airport;US
ALJ;-28.5733;16.5350;Alexander Bay Airport;ZA
ALL;44.0467;8.1264;Villanova D'Albenga International Airport;IT
ALM;32.8399;-105.9906;Alamogordo White Sands Regional Airport;US
ALN;38.8900;-90.0467;St Louis Regional Airport;US
ALO;42.5572;-92.4033;Waterloo Regional Airport;US
ALP;36.1797;37.2261;Aleppo International Airport;SY
ALR;-45.2117;169.3733;Alexandra Airport;NZ
ALS;37.4349;-105.8666;San Luis Valley Regional Bergman Field;US
ALW;46.0946;-118.2879;Walla Walla Regional Airport;US
ALY;31.1817;29.9464;El Nouzha Airport;EG
ALZ;56.8958;-154.2458;Alitak Seaplane Base;US
AMA;35.2194;-101.7059;Rick Husband Amarillo International Airport;US
AMD;23.0712;72.6264;Sardar Vallabhbhai Patel International Airport;IN
AMH;6.0394;37.5905;Arba Minch Airport;ET
AMI;-8.5620;116.0994;Selaparang Airport;ID
AMJ;-16.1833;-40.6667;Cirilo Queiróz Airport;BR
AMM;31.7226;35.9932;Queen Alia International Airport;JO
AMQ;-3.7070;128.0897;Pattimura Airport;ID
AMS;52.3081;4.7642;Amsterdam Airport Schiphol;NL
AMV;69.7633;61.5633;Amderma Airport;RU
AMY;-17.6830;45.6170;Ambatomainty Airport;MG
AMZ;-37.0297;174.9733;Ardmore Airport;NZ
ANB;33.5881;-85.8581;Anniston Metropolitan Airport;US
ANC;61.1744;-149.9964;Ted Stevens Anchorage International Airport;US
AND;34.4950;-82.7097;Anderson Regional Airport;US
ANE;47.5603;-0.3122;Angers-Loire Airport;FR
ANF;-23.4444;-70.4450;Cerro Moreno Airport;CL
ANG;45.7294;0.2192;Angoulême-Brie-Champniers Airport;FR
ANI;61.5816;-159.5430;Aniak Airport;US
ANJ;46.4792;-84.3684;Zanaga Airport;CG
ANK;39.9575;32.6744;Etimesgut Air Base;TR
ANM;-14.9994;50.3202;Antsirabato Airport;MG
ANN;55.0425;-131.5722;Annette Island Airport;US
ANO;-16.1833;39.9333;Angoche Airport;MZ
ANR;51.1894;4.4603;Antwerp International Airport (Deurne);BE
ANS;-13.7042;-73.3481;Andahuaylas Airport;PE
ANU;17.1367;-61.7928;V.C. Bird International Airport;AG
ANV;62.6467;-160.1907;Anvik Airport;US
ANW;42.5800;-99.9933;Ainsworth Municipal Airport;US
ANX;69.2925;16.1442;Andøya Airport;NO
AOC;50.9818;12.5064;Altenburg-Nobitz Airport;DE
AOE;39.8117;30.5286;Anadolu Airport;TR
AOG;41.1053;122.8539;Anshan Air Base;CN
AOI;43.6167;13.3603;Ancona Falconara Airport;IT
AOJ;40.7347;140.6908;Aomori Airport;JP
AOK;35.4167;27.1500;Karpathos Airport;GR
AOL;-29.6881;-57.1522;Paso De Los Libres Airport;AR
AOO;40.2964;-78.3200;Altoona Blair County Airport;US
AOQ;72.8869;-55.5961;Aappilattoq Heliport;GL
AOR;6.1944;100.4008;Sultan Abdul Halim Airport;MY
AOS;57.4667;-153.8333;Amook Bay Seaplane Base;US
AOT;45.7386;7.3681;Aosta Airport;IT
AOU;14.8000;106.8167;Attopeu Airport;LA
APA;39.5701;-104.8493;Centennial Airport;US
APC;38.2131;-122.2806;Napa County Airport;US
APF;26.1526;-81.7753;Naples Municipal Airport;US
APG;39.4662;-76.1688;Phillips Army Air Field;US
API;4.0761;-73.5627;Gomez Nino Apiay Air Base;CO
APK;-15.5736;-146.4153;Apataki Airport;PF
APL;-15.1000;39.2833;Nampula Airport;MZ
APN;45.0781;-83.5603;Alpena County Regional Airport;US
APO;7.0330;-77.2000;Antonio Roldan Betancourt Airport;CO
APS;-16.3619;-48.9275;Anápolis Airport;BR
APU;-23.6117;-51.3844;Apucarana Airport;BR
APV;34.5753;-117.1862;Apple Valley Airport;US
APW;-13.8297;-171.9972;Faleolo International Airport;WS
APX;-23.3625;-51.4792;Arapongas Airport;BR
AQA;-21.8039;-48.1397;Araraquara Airport;BR
AQG;30.5822;117.0503;Anqing Tianzhushan Airport;CN
AQI;28.3352;46.1249;Al Qaisumah/Hafr Al Batin Airport;SA
AQJ;29.6116;35.0181;Aqaba King Hussein International Airport;JO
AQP;-16.3403;-71.5728;Rodríguez Ballón International Airport;PE
ARA;30.0378;-91.8839;Acadiana Regional Airport;US
ARC;68.1147;-145.5794;Arctic Village Airport;US
ARH;64.6000;40.7183;Talagi Airport;RU
ARI;-18.3486;-70.3386;Chacalluta Airport;CL
ARK;-3.3678;36.6333;Arusha Airport;TZ
ARM;-30.5300;151.6175;Armidale Airport;AU
ARN;59.6519;17.9186;Stockholm-Arlanda Airport;SE
ARS;-15.8989;-52.2403;Aragarças Airport;BR
ARS;-15.8989;-52.2403;Usina Santa Cruz Airport;BR
ART;43.9919;-76.0217;Watertown International Airport;US
ARU;-21.1436;-50.4258;Araçatuba Airport;BR
ARV;45.9279;-89.7309;Lakeland-Noble F. Lee Memorial field;US
ARW;46.1765;21.2620;Arad International Airport;RO
ARY;-37.3119;142.9906;Ararat Airport;AU
ASA;13.0667;42.6333;Assab International Airport;ER
ASB;37.9917;58.3633;Ashgabat Airport;TM
ASD;24.6983;-77.7956;Andros Town Airport;BS
ASE;39.2232;-106.8688;Aspen-Pitkin Co/Sardy Field;US
ASF;46.2833;48.0083;Astrakhan Airport;RU
ASI;-7.9700;-14.3933;RAF Ascension Island;SH
ASJ;28.4308;129.7126;Amami Airport;JP
ASK;6.9061;-5.3626;Yamoussoukro Airport;CI
ASM;15.2842;38.9000;Asmara International Airport;ER
ASO;10.0185;34.5863;Asosa Airport;ET
ASP;-23.8067;133.9017;Alice Springs Airport;AU
ASR;38.7703;35.4953;Kayseri Erkilet Airport;TR
AST;44.8373;-117.8075;Astoria Regional Airport;US
ASU;-25.2411;-57.5168;Silvio Pettirossi International Airport;PY
ASV;-2.6330;37.2500;Amboseli Airport;KE
ASW;23.9644;32.8200;Aswan International Airport;EG
ATA;-9.3436;-77.5958;Comandante FAP German Arias Graziani Airport;PE
ATB;17.7097;34.0574;Atbara Airport;SD
ATC;24.6700;-75.7500;Arthur's Town Airport;BS
ATD;-8.8733;161.0114;Uru Harbour Airport;SB
ATF;-1.2119;-78.5747;Chachoán Airport;EC
ATH;37.9367;23.9445;Eleftherios Venizelos International Airport;GR
ATK;70.4673;-157.4357;Atqasuk Edward Burnell Sr Memorial Airport;US
ATL;33.6367;-84.4281;Hartsfield Jackson Atlanta International Airport;US
ATM;-3.2506;-52.2517;Altamira Airport;BR
ATN;-3.6670;152.4330;Namatanai Airport;PG
ATQ;31.7044;74.8021;Shri Guru Ram Dass Ji International Airport Amritsar;IN
ATQ;31.7044;74.8021;Sri Guru Ram Dass Jee International Airport;IN
ATR;20.5008;-13.0467;Atar International Airport;MR
ATT;60.8667;-162.2731;Atmautluak Airport;US
ATW;44.2581;-88.5191;Appleton International Airport;US
ATY;44.9140;-97.1547;Watertown Regional Airport;US
ATZ;27.0464;31.0119;Assiut International Airport;EG
AUA;12.5014;-70.0152;Queen Beatrix International Airport;AW
AUC;7.0689;-70.7369;Santiago Perez Airport;CO
AUF;47.8464;3.4967;Auxerre-Branches Airport;FR
AUG;44.3200;-69.7967;Augusta State Airport;US
AUH;24.4367;54.6508;Abu Dhabi International Airport;AE
AUK;62.6800;-164.6599;Alakanuk Airport;US
AUL;8.1333;171.1667;Aur Island Airport;MH
AUQ;-9.7667;-139.0167;Hiva Oa-Atuona Airport;PF
AUR;44.8975;2.4167;Aurillac Airport;FR
AUS;30.1950;-97.6700;Austin Bergstrom International Airport;US
AUS;30.1950;-97.6700;Austin Robert Mueller Municipal;US
AUU;-13.3539;141.7208;Aurukun Airport;AU
AUW;44.9285;-89.6266;Wausau Downtown Airport;US
AUX;-7.2281;-48.2403;Araguaína Airport;BR
AUY;-20.2492;169.7714;Aneityum Airport;VU
AVA;26.2606;105.8731;Anshun Huangguoshu Airport;CN
AVB;45.9250;12.4292;Aviano Air Base;IT
AVI;22.0269;-78.7894;Maximo Gomez Airport;CU
AVL;35.4367;-82.5417;Asheville Regional Airport;US
AVN;43.9067;4.9019;Avignon-Caumont Airport;FR
AVP;41.3384;-75.7234;Wilkes Barre Scranton International Airport;US
AVR;38.8855;-9.0281;Alverca Airport;PT
AVU;-9.8670;160.4000;Avu Avu Airport;SB
AVV;-38.0394;144.4694;Avalon Airport;AU
AWB;-8.0000;142.7500;Awaba Airport;PG
AWD;-19.2400;169.6050;Aniwa Airport;VU
AWK;19.2819;166.6386;Wake Island Airfield;UM
AWZ;31.3375;48.7603;Ahwaz Airport;IR
AXA;18.2047;-63.0539;Wallblake Airport;AI
AXD;40.8558;25.9561;Dimokritos Airport;GR
AXK;14.5333;46.8167;Ataq Airport;YE
AXM;4.4533;-75.7658;El Eden Airport;CO
AXN;45.8663;-95.3947;Chandler Field;US
AXP;22.4418;-73.9709;Spring Point Airport;BS
AXR;-15.2464;-146.6203;Arutua Airport;PF
AXT;39.6156;140.2185;Akita Airport;JP
AXU;14.1371;38.7761;Axum Airport;ET
AYK;50.3250;66.9600;Arkalyk North Airport;KZ
AYP;-13.1511;-74.2017;Coronel FAP Alfredo Mendivil Duarte Airport;PE
AYQ;-25.1867;130.9750;Ayers Rock Connellan Airport;AU
AYR;-19.5958;147.3258;Ayr Airport;AU
AYS;31.2491;-82.3955;Waycross Ware County Airport;US
AYT;36.9008;30.7947;Antalya International Airport;TR
AZA;33.3078;-111.6555;Phoenix-Mesa-Gateway Airport;US
AZD;31.9061;54.2764;Shahid Sadooghi Airport;IR
AZI;24.4283;54.4581;Bateen Airport;AE
AZN;40.7267;72.2933;Andizhan Airport;UZ
AZO;42.2349;-85.5521;Kalamazoo Battle Creek International Airport;US
AZR;27.8392;-0.1853;Touat Cheikh Sidi Mohamed Belkebir Airport;DZ
AZS;19.1986;-69.4298;Samaná El Catey International Airport;DO
BAB;39.1362;-121.4365;Beale Air Force Base;US
BAD;32.5018;-93.6627;Barksdale Air Force Base;US
BAF;42.1575;-72.7158;Barnes Municipal Airport;US
BAG;16.3767;120.6189;Loakan Airport;PH
BAH;26.2708;50.6336;Bahrain International Airport;BH
BAL;37.9322;41.1164;Batman Airport;TR
BAM;40.5990;-116.8743;Battle Mountain Airport;US
BAQ;10.8894;-74.7806;Ernesto Cortissoz International Airport;CO
BAS;-6.9670;155.8830;Ballalae Airport;SB
BAT;-20.5850;-48.5953;Chafei Amsei Airport;BR
BAU;-22.3436;-49.0539;Bauru Airport;BR
BAV;40.5600;109.9969;Baotou Airport;CN
BAX;53.3633;83.5417;Barnaul Airport;RU
BAY;47.6583;23.4662;Tautii Magheraus Airport;RO
BAZ;-0.9808;-62.9189;Barcelos Airport;BR
BBA;-45.9186;-71.6972;Balmaceda Airport;CL
BBH;54.3382;12.7101;Barth Airport;DE
BBI;20.2467;85.8185;Biju Patnaik Airport;IN
BBJ;49.9453;6.5650;Bitburg Airport;DE
BBK;-17.8297;25.1631;Kasane Airport;BW
BBM;13.1030;103.2294;Battambang Airport;KH
BBN;3.7339;115.4786;Bario Airport;MY
BBO;10.3833;44.9500;Berbera Airport;SO
BBQ;17.6275;-61.8269;Codrington Airport;AG
BBS;51.3239;-0.8475;Blackbushe Airport;GB
BBT;4.2261;15.7856;Berbérati Airport;CF
BBU;44.5035;26.1036;Băneasa International Airport;RO
BBW;41.4367;-99.6417;Broken Bow Municipal Airport;US
BCA;20.3647;-74.5067;Gustavo Rizo Airport;CU
BCD;10.6425;122.9296;Bacolod-Silay City International Airport;PH
BCH;-8.4854;126.3993;Cakung Airport;TL
BCI;-23.5650;145.3094;Barcaldine Airport;AU
BCL;10.7687;-83.5856;Barra del Colorado Airport;CR
BCM;46.5219;26.9103;Bacău Airport;RO
BCN;41.2971;2.0785;Barcelona International Airport;ES
BCR;-8.8333;-67.3117;Novo Campo Airport;BR
BCT;26.3784;-80.1076;Boca Raton Airport;US
BCV;17.2694;-88.7761;Belmopan Airport;BZ
BCW;-23.7333;35.1167;Benguera Island Airport;MZ
BDA;32.3640;-64.6787;L.F. Wade International International Airport;BM
BDB;-24.9053;152.3175;Bundaberg Airport;AU
BDD;-10.1500;142.1742;Badu Island Airport;AU
BDE;48.7284;-94.6122;Baudette International Airport;US
BDH;26.5314;54.8275;Bandar Lengeh Airport;IR
BDJ;-3.4397;114.7528;Syamsudin Noor Airport;ID
BDL;41.9389;-72.6832;Bradley International Airport;US
BDM;40.3156;27.9828;Bandırma Airport;TR
BDO;-6.9019;107.5761;Husein Sastranegara International Airport;ID
BDP;26.5703;88.0758;Bhadrapur Airport;NP
BDQ;22.3294;73.2194;Vadodara Airport;IN
BDR;41.1607;-73.1245;Igor I Sikorsky Memorial Airport;US
BDS;40.6606;17.9481;Brindisi – Salento Airport;IT
BDT;4.2500;20.9667;Gbadolite Airport;CD
BDU;69.0558;18.5403;Bardufoss Airport;NO
BEB;57.4811;-7.3628;Benbecula Airport;GB
BED;42.4700;-71.2900;Laurence G Hanscom Field;US
BEG;44.8194;20.3125;Belgrade Nikola Tesla Airport;RS
BEJ;2.1533;117.4311;Barau(Kalimaru) Airport;ID
BEL;-1.3847;-48.4789;Val de Cans/Júlio Cezar Ribeiro International Airport;BR
BEN;32.0975;20.2708;Benina International Airport;LY
BEP;15.1628;76.8828;Bellary Airport;IN
BES;48.4472;-4.4217;Brest Bretagne Airport;FR
BET;60.7798;-161.8380;Bethel Airport;US
BEU;-24.3467;139.4600;Bedourie Airport;AU
BEV;31.2881;34.7231;Beersheba (Teyman) Airport;IL
BEW;-19.7947;34.8992;Beira Airport;MZ
BEX;51.6147;-1.0939;RAF Benson;GB
BEY;33.8206;35.4900;Beirut Rafic Hariri International Airport;LB
BFD;41.8030;-78.6402;Bradford Regional Airport;US
BFF;41.8740;-103.5956;Western Neb. Rgnl/William B. Heilig Airport;US
BFI;47.5300;-122.3020;Boeing Field King County International Airport;US
BFJ;27.3003;105.3014;Ba Airport;FJ
BFJ;27.3003;105.3014;Bijie Feixiong Airport;CN
BFL;35.4333;-119.0567;Meadows Field;US
BFM;30.6267;-88.0681;Mobile Downtown Airport;US
BFN;-29.0938;26.3040;Bram Fischer International Airport;ZA
BFO;-21.0086;31.5794;Buffalo Range Airport;ZW
BFP;40.7725;-80.3915;Beaver County Airport;US
BFQ;7.5830;-78.2000;Bahia Piña Airport;PA
BFS;54.6575;-6.2158;Belfast International Airport;GB
BFV;15.2267;103.2511;Buri Ram Airport;TH
BFX;5.5347;10.3558;Bafoussam Airport;CM
BGA;7.1269;-73.1850;Palonegro Airport;CO
BGC;41.8567;-6.7075;Bragança Airport;PT
BGF;4.3977;18.5198;Bangui M'Poko International Airport;CF
BGG;38.8600;40.5939;Bingöl Çeltiksuyu Airport;TR
BGI;13.0746;-59.4921;Sir Grantley Adams International Airport;BB
BGM;42.2087;-75.9731;Greater Binghamton/Edwin A Link field;US
BGN;51.2000;6.1333;Brüggen Air Base;DE
BGO;60.2936;5.2181;Bergen Airport Flesland;NO
BGR;44.8074;-68.8281;Bangor International Airport;US
BGU;4.7833;22.7833;Bangassou Airport;CF
BGW;33.3500;44.4170;Baghdad International Airport;IQ
BGX;-31.3908;-54.1097;Comandante Gustavo Kraemer Airport;BR
BGY;45.6689;9.7003;Il Caravaggio International Airport;IT
BHA;-0.6050;-80.4042;Los Perales Airport;EC
BHB;44.4498;-68.3616;Hancock County-Bar Harbor Airport;US
BHD;54.6181;-5.8725;George Best Belfast City Airport;GB
BHE;-41.5183;173.8703;Woodbourne Airport;NZ
BHG;15.7350;-84.5425;Brus Laguna Airport;HN
BHH;19.9842;42.6231;Bisha Airport;SA
BHI;-38.7203;-62.1575;Comandante Espora Airport;AR
BHJ;23.2867;69.6700;Bhuj Airport;IN
BHK;39.7750;64.4833;Bukhara Airport;UZ
BHM;33.5629;-86.7535;Birmingham-Shuttlesworth International Airport;US
BHO;23.2869;77.3369;Raja Bhoj International Airport;IN
BHQ;-32.0017;141.4717;Broken Hill Airport;AU
BHR;27.6781;84.4294;Bharatpur Airport;NP
BHS;-33.4111;149.6528;Bathurst Airport;AU
BHU;21.7542;72.1906;Bhavnagar Airport;IN
BHV;29.3444;71.7125;Bahawalpur Airport;PK
BHX;52.4539;-1.7480;Birmingham International Airport;GB
BHY;21.5394;109.2939;Beihai Airport;CN
BIA;42.5500;9.4847;Bastia-Poretta Airport;FR
BID;41.1681;-71.5778;Block Island State Airport;US
BIE;40.3017;-96.7533;Beatrice Municipal Airport;US
BIF;31.8495;-106.3800;Biggs Army Air Field (Fort Bliss);US
BIG;63.9945;-145.7216;Allen Army Airfield;US
BIH;37.3731;-118.3636;Eastern Sierra Regional Airport;US
BII;11.5225;165.5650;Enyu Airfield;MH
BIK;-1.1919;136.1100;Frans Kaisiepo Airport;ID
BIL;45.8077;-108.5429;Billings Logan International Airport;US
BIM;25.6999;-79.2647;South Bimini Airport;BS
BIO;43.3011;-2.9106;Bilbao Airport;ES
BIQ;43.4683;-1.5311;Biarritz-Anglet-Bayonne Airport;FR
BIR;26.4840;87.2643;Biratnagar Airport;NP
BIS;46.7740;-100.7467;Bismarck Municipal Airport;US
BIV;6.5267;21.9900;Bria Airport;CF
BIX;30.4113;-88.9236;Keesler Air Force Base;US
BIY;-32.8950;27.2850;Bisho Airport;ZA
BJA;36.7119;5.0694;Soummam Airport;DZ
BJB;37.4892;57.3064;Bojnord Airport;IR
BJC;39.9083;-105.1167;Rocky Mountain Metropolitan Airport;US
BJF;70.6003;29.6925;Båtsfjord Airport;NO
BJI;47.5094;-94.9337;Bemidji Regional Airport;US
BJL;13.3425;-16.6578;Banjul International Airport;GM
BJM;-3.3178;29.3172;Bujumbura International Airport;BI
BJR;11.6063;37.3197;Bahir Dar Airport;ET
BJT;6.4833;79.9833;Bentota River Waterdrome;LK
BJV;37.2472;27.6814;Milas Bodrum International Airport;TR
BJX;20.9933;-101.4810;Del Bajío International Airport;MX
BJY;44.9236;20.2790;Batajnica Air Base;RS
BJZ;38.8912;-6.8213;Badajoz Airport;ES
BKA;55.6172;38.0600;Bykovo Airport;RU
BKC;65.9816;-161.1491;Buckland Airport;US
BKE;44.8373;-117.8091;Baker City Municipal Airport;US
BKF;39.7017;-104.7517;Lake Brooks Seaplane Base;US
BKG;36.5321;-93.2005;Branson Airport;US
BKI;5.9447;116.0531;Kota Kinabalu International Airport;MY
BKK;13.6811;100.7473;Suvarnabhumi Airport;TH
BKL;41.5250;-81.6833;Burke Lakefront Airport;US
BKM;3.9740;115.6180;Bakalalan Airport;MY
BKO;12.5379;-7.9433;Senou Airport;ML
BKQ;-24.4267;145.4233;Blackall Airport;AU
BKS;-3.8611;102.3394;Fatmawati Soekarno Airport;ID
BKW;37.7867;-81.1244;Raleigh County Memorial Airport;US
BKY;-2.3090;28.8088;Bukavu Kavumu Airport;CD
BKZ;-1.3000;31.8000;Bukoba Airport;TZ
BLA;10.1167;-64.6833;General Jose Antonio Anzoategui International Airport;VE
BLB;8.9148;-79.5996;Panama Pacific International Airport;PA
BLD;35.9475;-114.8611;Boulder City Municipal Airport;US
BLE;60.4222;15.5150;Borlange Airport;SE
BLF;37.2958;-81.2077;Mercer County Airport;US
BLH;33.6192;-114.7168;Blythe Airport;US
BLI;48.7927;-122.5375;Bellingham International Airport;US
BLJ;35.7592;6.3225;Batna Airport;DZ
BLK;53.7716;-3.0286;Blackpool International Airport;GB
BLL;55.7403;9.1518;Billund Airport;DK
BLQ;44.5306;11.2969;Bologna Guglielmo Marconi Airport;IT
BLR;12.9522;77.6646;Kempegowda International Airport;IN
BLT;-23.6000;148.8167;Blackwater Airport;AU
BLV;38.5452;-89.8352;Scott AFB/Midamerica Airport;US
BLZ;-15.6798;34.9676;Chileka International Airport;MW
BMA;59.3544;17.9422;Stockholm-Bromma Airport;SE
BMC;41.5524;-112.0622;Brigham City Airport;US
BMD;-19.6867;44.5419;Belo sur Tsiribihina Airport;MG
BME;-17.9500;122.2317;Broome International Airport;AU
BMI;40.4767;-88.9167;Central Illinois Regional Airport at Bloomington-Normal;US
BMK;53.5955;6.7092;Borkum Airport;DE
BMO;24.2690;97.2462;Banmaw Airport;MM
BMU;-8.5408;118.6906;Muhammad Salahuddin Airport;ID
BMV;12.6661;108.1145;Buon Ma Thuot Airport;VN
BMW;21.3750;0.9239;Bordj Badji Mokhtar Airport;DZ
BMY;-19.7206;163.6611;Île Art - Waala Airport;NC
BNA;36.1245;-86.6782;Nashville International Airport;US
BNB;-0.2860;20.8840;Boende Airport;CD
BNC;0.5750;29.4739;Beni Airport;CD
BND;27.2186;56.3778;Bandar Abbas International Airport;IR
BNE;-27.3858;153.1183;Brisbane International Airport;AU
BNI;6.2331;5.5992;Benin Airport;NG
BNJ;50.7319;7.0967;Bonn-Hangelar Airport;DE
BNK;-28.8333;153.5617;Ballina Byron Gateway Airport;AU
BNN;65.4611;12.2175;Brønnøysund Airport;NO
BNO;43.5919;-118.9554;Burns Municipal Airport;US
BNP;32.9667;70.5333;Bannu Airport;PK
BNS;8.6167;-70.2167;Barinas Airport;VE
BNX;44.9417;17.3033;Banja Luka International Airport;BA
BNY;-11.3022;159.7981;Bellona/Anua Airport;SB
BOA;-5.8540;13.0640;Boma Airport;CD
BOB;-16.4436;-151.7525;Bora Bora Airport;PF
BOC;9.3408;-82.2508;Bocas Del Toro International Airport;PA
BOD;44.8286;-0.7153;Bordeaux-Mérignac Airport;FR
BOG;4.7031;-74.1383;El Dorado International Airport;CO
BOH;50.7800;-1.8425;Bournemouth Airport;GB
BOI;43.5644;-116.2228;Boise Air Terminal/Gowen field;US
BOJ;42.5703;27.5153;Burgas Airport;BG
BOM;19.0908;72.8667;Chhatrapati Shivaji International Airport;IN
BON;12.1311;-68.2769;Flamingo International Airport;BQ
BOO;67.2692;14.3653;Bodø Airport;NO
BOP;5.9667;15.6333;Bouar Airport;CF
BOS;42.3643;-71.0052;General Edward Lawrence Logan International Airport;US
BOT;-7.2330;141.0830;Bosset Airport;PG
BOU;47.0644;2.3789;Bourges Airport;FR
BOX;-16.0753;136.3022;Borroloola Airport;AU
BOY;11.1675;-4.3211;Bobo Dioulasso Airport;BF
BPE;21.1812;94.9287;Qinhuangdao Beidaihe Airport;CN
BPF;-8.5830;158.1170;Batuna Aerodrome;SB
BPG;-15.8603;-52.3889;Barra do Garças Airport;BR
BPH;8.1885;126.3270;Bislig Airport;PH
BPI;42.5851;-110.1112;Miley Memorial Field;US
BPL;44.9038;82.0708;Alashankou Bole (Bortala) airport;CN
BPM;34.9463;69.2650;Begumpet Airport;IN
BPN;-1.2672;116.8939;Sultan Aji Muhamad Sulaiman Airport;ID
BPS;-16.4381;-39.0733;Porto Seguro Airport;BR
BPT;29.9508;-94.0207;Southeast Texas Regional Airport;US
BPX;30.5536;97.1083;Qamdo Bangda Airport;CN
BPY;-16.7419;44.4814;Besalampy Airport;MG
BQA;15.7331;121.5022;Dr.Juan C. Angara Airport;PH
BQB;-33.6867;115.4000;Busselton Regional Airport;AU
BQH;51.3308;0.0325;London Biggin Hill Airport;GB
BQK;31.2588;-81.4665;Brunswick Golden Isles Airport;US
BQL;-22.9133;139.9000;Boulia Airport;AU
BQN;18.4948;-67.1295;Rafael Hernandez Airport;PR
BQQ;-22.4831;-48.5239;Barra Airport;BR
BQS;50.4250;127.4117;Ignatyevo Airport;RU
BQT;52.1083;23.8981;Brest Airport;BY
BRA;-12.0794;-45.0094;Barreiras Airport;BR
BRB;-2.7958;-57.0556;Barreirinhas Airport;BR
BRC;-41.1511;-71.1578;San Carlos De Bariloche Airport;AR
BRD;46.3983;-94.1381;Brainerd Lakes Regional Airport;US
BRE;53.0474;8.7867;Bremen Airport;DE
BRI;41.1392;16.7658;Bari Karol Wojtyła Airport;IT
BRK;-30.0403;145.9528;Bourke Airport;AU
BRL;40.7832;-91.1255;Southeast Iowa Regional Airport;US
BRM;10.0456;-69.3564;Barquisimeto International Airport;VE
BRN;46.9122;7.4992;Bern Belp Airport;CH
BRO;25.9068;-97.4259;Brownsville South Padre Island International Airport;US
BRQ;49.1514;16.6939;Brno-Tuřany Airport;CZ
BRR;57.0170;-7.4330;Barra Airport;GB
BRS;51.3827;-2.7191;Bristol International Airport;GB
BRT;-11.7664;130.6167;Bathurst Island Airport;AU
BRU;50.9014;4.4844;Brussels Airport;BE
BRV;53.5071;8.5729;Bremerhaven Airport;DE
BRW;71.2854;-156.7660;Wiley Post Will Rogers Memorial Airport;US
BRX;18.2517;-71.1219;Maria Montez International Airport;DO
BSA;11.2753;49.1494;Bosaso Airport;SO
BSB;-15.8692;-47.9208;Presidente Juscelino Kubistschek International Airport;BR
BSC;6.2031;-77.3947;José Celestino Mutis Airport;CO
BSD;25.1500;99.1500;Baoshan Yunduan Airport;CN
BSG;1.9022;9.8028;Bata Airport;GQ
BSJ;-37.8883;147.5683;Bairnsdale Airport;AU
BSK;34.7933;5.7382;Biskra Airport;DZ
BSL;47.5900;7.5292;EuroAirport Basel-Mulhouse-Freiburg Airport;FR
BSO;20.4522;121.9772;Basco Airport;PH
BSR;30.5491;47.6621;Basrah International Airport;IQ
BSS;-7.5250;-46.0528;Balsas Airport;BR
BST;31.5590;64.3641;Bost Airport;AF
BSX;16.8152;94.7799;Pathein Airport;MM
BSZ;58.2336;-157.3503;Bartletts Airport;US
BTC;7.7033;81.6783;Batticaloa Airport;LK
BTH;1.1189;104.1142;Hang Nadim International Airport;ID
BTI;70.1340;-143.5819;Barter Island LRRS Airport;US
BTJ;5.5169;95.4200;Sultan Iskandar Muda International Airport;ID
BTK;56.3700;101.6983;Bratsk Airport;RU
BTL;42.3075;-85.2517;W K Kellogg Airport;US
BTM;45.9548;-112.4975;Bert Mooney Airport;US
BTR;30.5331;-91.1496;Baton Rouge Metropolitan Apt;US
BTS;48.1700;17.2128;M. R. Štefánik Airport;SK
BTT;66.9139;-151.5290;Bettles Airport;US
BTU;3.1241;113.0197;Bintulu Airport;MY
BTV;44.4718;-73.1532;Burlington International Airport;US
BTZ;40.2489;29.5494;Bursa Airport;TR
BUA;-5.4223;154.6727;Buka Airport;PG
BUC;-17.7483;139.5350;Burketown Airport;AU
BUD;47.4393;19.2618;Budapest Ferenc Liszt International Airport;HU
BUF;42.9405;-78.7322;Buffalo Niagara International Airport;US
BUG;-12.6099;13.4037;Benguela Airport;AO
BUJ;35.3314;4.2044;Bou Saada Airport;DZ
BUL;-7.2170;146.6330;Bulolo Airport;PG
BUN;3.8197;-76.9897;Gerardo Tobar López Airport;CO
BUO;9.5170;45.5670;Burao Airport;SO
BUQ;-20.0183;28.6247;Joshua Mqabuko Nkomo International Airport;ZW
BUR;34.2006;-118.3587;Bob Hope Airport;US
BUS;41.6100;41.5997;Batumi International Airport;GE
BUW;-5.4869;122.5690;Betoambari Airport;ID
BUX;1.5658;30.2206;Bunia Airport;CD
BUY;-33.3783;115.6767;Bunbury Airport;AU
BUZ;28.9494;50.8303;Bushehr Airport;IR
BVA;49.4544;2.1128;Paris Beauvais Tillé Airport;FR
BVB;2.8414;-60.6922;Atlas Brasil Cantanhede Airport;BR
BVC;16.1364;-22.8886;Rabil Airport;CV
BVE;45.1494;1.4744;Brive Souillac Airport;FR
BVG;70.8714;29.0342;Berlevåg Airport;NO
BVH;-12.7014;-60.0931;Brigadeiro Camarão Airport;BR
BVI;-25.8989;139.3486;Birdsville Airport;AU
BVM;-15.8708;-38.8719;Belmonte Airport;BR
BVS;-1.6383;-50.4408;Breves Airport;BR
BVV;44.9200;147.6217;Burevestnik Airport;RU
BVY;42.5842;-70.9165;Beverly Municipal Airport;US
BWA;27.5073;83.4179;Gautam Buddha Airport;NP
BWB;-20.8658;115.4047;Barrow Island Airport;AU
BWE;52.3192;10.5561;Braunschweig Wolfsburg Airport;DE
BWG;36.9645;-86.4197;Bowling Green Warren County Regional Airport;US
BWH;5.4661;100.3911;Butterworth Airport;MY
BWI;39.1754;-76.6683;Baltimore/Washington International Thurgood Marshall Airport;US
BWK;43.2857;16.6797;Bol Airport;HR
BWN;4.9442;114.9284;Brunei International Airport;BN
BWO;51.8617;47.7500;Balakovo Airport;RU
BWQ;-29.9756;146.8156;Brewarrina Airport;AU
BWT;-41.0003;145.7300;Wynyard Airport;AU
BWU;-33.9244;150.9900;Sydney Bankstown Airport;AU
BWW;22.6200;-79.1400;Las Brujas Airport;CU
BXB;-2.5322;133.4389;Babo Airport;ID
BXE;14.8667;-12.4833;Bakel Airport;SN
BXH;46.8933;75.0050;Balkhash Airport;KZ
BXR;29.0842;58.4497;Bam Airport;IR
BXU;8.9586;125.4917;Bancasi Airport;PH
BYC;-21.9494;-63.6481;Yacuiba Airport;BO
BYF;49.9700;2.6928;Albert-Bray Airport;FR
BYH;35.9643;-89.9440;Arkansas International Airport;US
BYI;42.5433;-113.7717;Burley Municipal Airport;US
BYK;7.7525;-5.0678;Bouaké Airport;CI
BYM;20.3972;-76.6175;Carlos Manuel de Cespedes Airport;CU
BYN;46.1633;100.7041;Bayankhongor Airport;MN
BYO;-21.2294;-56.4561;Bonito Airport;BR
BYR;57.2772;11.0001;Læsø Airport;DK
BYU;49.9844;11.6386;Bayreuth Airport;DE
BZB;-18.7167;36.3333;Bazaruto Island Airport;MZ
BZC;-22.7656;-41.9650;Umberto Modiano Airport;BR
BZD;-34.6250;143.5769;Balranald Airport;AU
BZE;17.5361;-88.3083;Philip S. W. Goldson International Airport;BZ
BZG;53.0968;17.9777;Bydgoszcz Ignacy Jan Paderewski Airport;PL
BZI;39.6156;27.9328;Balıkesir Merkez Airport;TR
BZK;53.2133;34.1783;Bryansk Airport;RU
BZL;22.7989;90.3012;Barisal Airport;BD
BZN;45.7775;-111.1530;Gallatin Field;US
BZO;46.4603;11.3267;Bolzano Airport;IT
BZR;43.3233;3.3533;Béziers-Vias Airport;FR
BZV;-4.2556;15.2483;Maya-Maya Airport;CG
BZY;47.8383;27.7817;Balti International Airport;MD
BZZ;51.7495;-1.5822;RAF Brize Norton;GB
CAB;-5.5970;12.1884;Cabinda Airport;AO
CAC;-25.0022;-53.5019;Cascavel Airport;BR
CAE;33.9387;-81.1195;Columbia Metropolitan Airport;US
CAG;39.2472;9.0564;Cagliari Elmas Airport;IT
CAH;9.1877;105.1750;Cà Mau Airport;VN
CAI;30.1114;31.4139;Cairo International Airport;EG
CAJ;6.2500;-62.8333;Canaima Airport;VE
CAK;40.9160;-81.4421;Akron Canton Regional Airport;US
CAL;55.4372;-5.6864;Campbeltown Airport;GB
CAN;23.3900;113.3067;Guangzhou Baiyun International Airport;CN
CAO;36.4462;-103.1500;Clayton Municipal Airpark;US
CAP;19.7333;-72.2000;Cap Haitien International Airport;HT
CAR;46.8714;-68.0178;Caribou Municipal Airport;US
CAS;33.5533;-7.6614;Anfa Airport;MA
CAU;-18.2842;-36.0106;Caruaru Airport;BR
CAV;-11.9000;22.9000;Cazombo Airport;AO
CAW;-21.7006;-41.3072;Bartolomeu Lisandro Airport;BR
CAX;54.9375;-2.7250;Carlisle Airport;GB
CAY;4.8197;-52.3619;Cayenne-Rochambeau Airport;GF
CAZ;-31.5383;145.7933;Cobar Airport;AU
CBB;-17.4211;-66.1769;Jorge Wilsterman International Airport;BO
CBD;9.1532;92.8194;Car Nicobar Air Force Station;IN
CBG;52.2050;0.1750;Cambridge Airport;GB
CBH;31.6500;-2.2500;Béchar Boudghene Ben Ali Lotfi Airport;DZ
CBJ;17.6500;-71.6500;Cabo Rojo Airport;DO
CBL;8.1333;-63.5350;Aeropuerto ""General Tomas de Heres"". Ciudad Bolivar;VE
CBO;7.1608;124.2125;Awang Airport;PH
CBQ;4.9761;8.3472;Margaret Ekpo International Airport;NG
CBR;-35.3067;149.1950;Canberra International Airport;AU
CBS;10.3301;-71.3225;Oro Negro Airport;VE
CBT;-12.4792;13.4869;Catumbela Airport;AO
CBU;51.8908;14.5336;Cottbus-Drewitz Airport;DE
CBW;-24.0069;-52.3561;Campo Mourão Airport;BR
CBX;-33.0650;147.2083;Condobolin Airport;AU
CCC;22.4611;-78.3286;Jardines Del Rey Airport;CU
CCF;43.2158;2.3086;Carcassonne Airport;FR
CCH;-46.5475;-71.6961;Chile Chico Airport;CL
CCJ;11.1381;75.9504;Calicut International Airport;IN
CCK;-12.1883;96.8300;Cocos (Keeling) Islands Airport;CC
CCL;-26.7750;150.6167;Chinchilla Airport;AU
CCM;-28.7239;-49.4208;Diomício Freitas Airport;BR
CCN;34.5267;65.2717;Chakcharan Airport;AF
CCP;-36.7728;-73.0631;Carriel Sur Airport;CL
CCS;10.6012;-66.9912;Simón Bolívar International Airport;VE
CCU;22.6531;88.4492;Netaji Subhash Chandra Bose International Airport;IN
CCV;-16.2650;167.9244;Craig Cove Airport;VU
CCZ;25.4171;-77.8808;Chub Cay Airport;BS
CDB;55.2061;-162.7238;Cold Bay Airport;US
CDC;37.7010;-113.0988;Cedar City Regional Airport;US
CDG;49.0097;2.5478;Charles de Gaulle International Airport;FR
CDH;33.6233;-92.7633;Harrell Field;US
CDI;-20.8361;-41.1869;Cachoeiro do Itapemirim Airport;BR
CDJ;-8.3483;-49.3025;Conceição do Araguaia Airport;BR
CDR;42.8376;-103.0953;Chadron Municipal Airport;US
CDS;34.4337;-100.2879;Childress Municipal Airport;US
CDU;-34.0419;150.6861;Camden Airport;AU
CDV;60.4917;-145.4775;Merle K (Mudhole) Smith Airport;US
CDW;40.8752;-74.2814;Essex County Airport;US
CEB;10.3075;123.9794;Mactan Cebu International Airport;PH
CEC;41.7796;-124.2409;Jack Mc Namara Field Airport;US
CED;-32.1300;133.7100;Ceduna Airport;AU
CEE;59.2733;38.0400;Cherepovets Airport;RU
CEF;42.1940;-72.5348;Westover ARB/Metropolitan Airport;US
CEG;53.1781;-2.9778;Hawarden Airport;GB
CEI;19.9522;99.8831;Chiang Rai International Airport;TH
CEK;55.3050;61.5050;Chelyabinsk Balandino Airport;RU
CEM;65.5739;-144.7809;Central Airport;US
CEN;27.3930;-109.8334;Ciudad Obregón International Airport;MX
CEQ;43.5464;6.9542;Cannes-Mandelieu Airport;FR
CER;49.6508;-1.4753;Cherbourg-Maupertus Airport;FR
CES;-32.7875;151.3417;Cessnock Airport;AU
CET;47.0819;-0.8772;Cholet Le Pontreau Airport;FR
CEW;30.7788;-86.5221;Bob Sikes Airport;US
CEZ;37.3030;-108.6281;Cortez Municipal Airport;US
CFB;-22.9217;-42.0743;Cabo Frio Airport;BR
CFC;-26.8063;-50.9399;Caçador Airport;BR
CFE;45.7858;3.1625;Clermont-Ferrand Auvergne Airport;FR
CFF;66.7031;-119.7072;Cafunfo Airport;AO
CFG;22.1500;-80.4142;Jaime Gonzalez Airport;CU
CFK;36.2100;1.3300;Ech Cheliff Airport;DZ
CFN;55.0442;-8.3409;Donegal Airport;IE
CFR;49.1733;-0.4500;Caen-Carpiquet Airport;FR
CFS;-30.3200;153.1167;Coffs Harbour Airport;AU
CFU;39.6019;19.9122;Ioannis Kapodistrias International Airport;GR
CGA;55.4788;-133.1478;Craig Seaplane Base;US
CGB;-15.6500;-56.1175;Marechal Rondon Airport;BR
CGD;28.9189;111.6403;Changde Airport;CN
CGH;-23.6261;-46.6564;Congonhas Airport;BR
CGI;37.2253;-89.5708;Cape Girardeau Regional Airport;US
CGK;-6.1239;106.6611;Soekarno-Hatta International Airport;ID
CGM;9.2535;124.7071;Camiguin Airport;PH
CGN;50.8659;7.1427;Cologne Bonn Airport;DE
CGO;34.5183;113.8417;Zhengzhou Xinzheng International Airport;CN
CGP;22.2570;91.8222;Shah Amanat International Airport;BD
CGQ;43.9983;125.6883;Longjia Airport;CN
CGR;-20.4694;-54.6703;Campo Grande Airport;BR
CGY;8.4162;124.6114;Laguindingan Airport;PH
CHA;35.0353;-85.2038;Lovell Field;US
CHC;-43.4894;172.5344;Christchurch International Airport;NZ
CHE;59.4467;24.7528;Reeroe Airport;IE
CHG;41.5381;120.4350;Chaoyang Airport;CN
CHH;-6.2000;-77.8833;Chachapoyas Airport;PE
CHM;-9.1447;-78.5208;Teniente FAP Jaime A De Montreuil Morales Airport;PE
CHN;36.7178;127.4961;Jeon Ju Airport;KR
CHO;38.1386;-78.4529;Charlottesville Albemarle Airport;US
CHQ;35.5314;24.1511;Chania International Airport;GR
CHR;46.8603;1.7211;Châteauroux-Déols ""Marcel Dassault"" Airport;FR
CHS;32.8986;-80.0405;Charleston Air Force Base-International Airport;US
CHT;-43.8100;-176.4572;Chatham Islands-Tuuta Airport;NZ
CHU;61.5791;-159.2156;Chuathbaluk Airport;US
CHX;9.4589;-82.5153;Cap Manuel Niño International Airport;PA
CHY;-6.7119;156.3961;Choiseul Bay Airport;SB
CIA;41.7994;12.5972;Ciampino–G. B. Pastine International Airport;IT
CIC;39.7954;-121.8584;Chico Municipal Airport;US
CID;41.8847;-91.7108;The Eastern Iowa Airport;US
CIF;42.2350;118.9083;Chifeng Airport;CN
CIG;40.4950;-107.5214;Craig Moffat Airport;US
CIH;36.2475;113.1258;Changzhi Airport;CN
CIJ;-11.0428;-68.7833;Capitán Aníbal Arab Airport;BO
CIK;66.6450;-143.7399;Chalkyitsik Airport;US
CIN;37.5939;-83.3172;Arthur N Neu Airport;US
CIP;-13.5667;32.5911;Chipata Airport;ZM
CIS;-2.7700;-171.7133;Canton Island Airport;KI
CIT;42.3642;69.4789;Shymkent Airport;KZ
CIU;46.2508;-84.4724;Chippewa County International Airport;US
CIW;12.6990;-61.3424;Canouan Airport;VC
CIX;-6.7875;-79.8281;Capitan FAP Jose A Quinones Gonzales International Airport;PE
CIY;36.9953;14.6081;Comiso Airport;IT
CIZ;-4.1339;-63.1311;Coari Airport;BR
CJA;-7.1322;-78.4889;Mayor General FAP Armando Revoredo Iglesias Airport;PE
CJB;11.0269;77.0418;Coimbatore International Airport;IN
CJC;-22.4947;-68.9019;El Loa Airport;CL
CJJ;36.7166;127.4991;Cheongju International Airport;KR
CJL;35.8861;71.7999;Chitral Airport;PK
CJM;10.7118;99.3609;Chumphon Airport;TH
CJS;31.6364;-106.4288;Abraham González International Airport;MX
CJT;16.1767;-92.0506;Comitan Airport;MX
CJU;33.5122;126.4928;Jeju International Airport;KR
CKB;39.2966;-80.2281;North Central West Virginia Airport;US
CKC;49.4161;31.9908;Cherkasy International Airport;UA
CKD;61.8679;-158.1349;Crooked Creek Airport;US
CKG;29.7167;106.6400;Chongqing Jiangbei International Airport;CN
CKH;70.6250;147.8967;Chokurdakh Airport;RU
CKL;55.8800;38.0633;Chkalovskiy Airport;RU
CKO;-23.1522;-50.6022;Cornélio Procópio Airport;BR
CKS;-6.1175;-50.0036;Carajás Airport;BR
CKT;36.4881;61.0700;Sarakhs Airport;IR
CKX;64.0713;-141.9523;Chicken Airport;US
CKY;9.5769;-13.6120;Conakry International Airport;GN
CKZ;40.1361;26.4247;Çanakkale Airport;TR
CLA;23.4377;91.1895;Comilla Airport;BD
CLD;33.1283;-117.2800;Mc Clellan-Palomar Airport;US
CLE;41.4117;-81.8498;Cleveland Hopkins International Airport;US
CLI;44.6133;-88.7317;Clintonville Municipal Airport;US
CLJ;46.7851;23.6861;Cluj-Napoca International Airport;RO
CLL;30.5885;-96.3637;Easterwood Field;US
CLM;48.1202;-123.4997;William R Fairchild International Airport;US
CLN;-7.3333;-47.4333;Brig. Lysias Augusto Rodrigues Airport;BR
CLO;3.5431;-76.3817;Alfonso Bonilla Aragon International Airport;CO
CLP;58.8337;-158.5294;Clarks Point Airport;US
CLQ;19.2770;-103.5776;Licenciado Miguel de la Madrid Airport;MX
CLT;35.2140;-80.9431;Charlotte Douglas International Airport;US
CLU;39.2617;-85.8967;Columbus Municipal Airport;US
CLV;-17.7247;-48.6100;Nelson Ribeiro Guimarães Airport;BR
CLY;42.5203;8.7931;Calvi-Sainte-Catherine Airport;FR
CLZ;8.9283;-67.4133;Calabozo Airport;VE
CMA;-28.0300;145.6222;Cunnamulla Airport;AU
CMB;7.1802;79.8853;Bandaranaike International Colombo Airport;LK
CMD;-34.6233;148.0283;Cootamundra Airport;AU
CME;18.6522;-91.8011;Ciudad del Carmen International Airport;MX
CMF;45.6392;5.8800;Chambéry-Savoie Airport;FR
CMG;-19.0119;-57.6714;Corumbá International Airport;BR
CMH;39.9980;-82.8919;Port Columbus International Airport;US
CMI;40.0393;-88.2781;University of Illinois Willard Airport;US
CMK;-14.3069;35.1325;Club Makokola Airport;MW
CMN;33.3642;-7.5817;Mohammed V International Airport;MA
CMP;-9.3350;-50.3497;Santana do Araguaia Airport;BR
CMQ;-22.7694;147.6194;Clermont Airport;AU
CMR;48.1103;7.3592;Colmar-Houssen Airport;FR
CMU;-6.0243;144.9705;Chimbu Airport;PG
CMW;21.4203;-77.8475;Ignacio Agramonte International Airport;CU
CMX;47.1683;-88.4883;Houghton County Memorial Airport;US
CNB;-30.9833;148.3742;Coonamble Airport;AU
CNC;-10.0500;143.0667;Coconut Island Airport;AU
CND;44.3621;28.4885;Mihail Kogălniceanu International Airport;RO
CNF;-19.6244;-43.9719;Tancredo Neves International Airport;BR
CNG;45.6583;-0.3175;Cognac-Châteaubernard (BA 709) Air Base;FR
CNJ;-20.6731;140.5008;Cloncurry Airport;AU
CNK;39.5493;-97.6523;Blosser Municipal Airport;US
CNL;57.5035;10.2294;Sindal Airport;DK
CNM;32.3383;-104.2633;Cavern City Air Terminal;US
CNP;70.7433;-22.6606;Neerlerit Inaat Airport;GL
CNQ;-27.4456;-58.7619;Corrientes Airport;AR
CNR;-26.3222;-70.6111;Chañaral Airport;CL
CNS;-16.8867;145.7550;Cairns International Airport;AU
CNU;37.6683;-95.4850;Chanute Martin Johnson Airport;US
CNW;31.6378;-97.0740;TSTC Waco Airport;US
CNX;18.7714;98.9628;Chiang Mai International Airport;TH
CNY;38.7550;-109.7548;Canyonlands Field;US
COC;-31.3033;-58.0081;Comodoro Pierrestegui Airport;AR
COD;44.5202;-109.0238;Yellowstone Regional Airport;US
COE;47.7743;-116.8196;Coeur D'Alene - Pappy Boyington Field;US
COF;28.2349;-80.6101;Patrick Air Force Base;US
COH;26.3303;89.4167;Cooch Behar Airport;IN
COJ;-31.3350;149.2700;Coonabarabran Airport;AU
COK;10.1539;76.4069;Cochin International Airport;IN
COL;56.6000;-6.6170;Coll Airport;GB
CON;43.2033;-71.5017;Concord Municipal Airport;US
COO;6.3564;2.3833;Cadjehoun Airport;BJ
COQ;48.1500;114.6667;Choibalsan Airport;MN
COR;-31.3100;-64.2083;Ingeniero Ambrosio Taravella Airport;AR
COS;38.8058;-104.7002;City of Colorado Springs Municipal Airport;US
COT;28.4567;-99.2183;Cotulla-La Salle County Airport;US
COU;38.8183;-92.2200;Columbia Regional Airport;US
COZ;18.9000;-70.7167;Constanza - Expedición 14 de Junio National Airport;DO
CPA;4.3676;-7.7001;Cape Palmas Airport;LR
CPC;-40.0819;-71.1458;Aviador C. Campos Airport;AR
CPD;-29.0400;134.7194;Coober Pedy Airport;AU
CPE;19.6681;-90.5003;Ingeniero Alberto Acuña Ongay International Airport;MX
CPH;55.6179;12.6560;Copenhagen Kastrup Airport;DK
CPO;-27.2967;-70.4136;Desierto de Atacama Airport;CL
CPQ;-22.8586;-47.1075;Amarais Airport;BR
CPR;42.9079;-106.4643;Casper-Natrona County International Airport;US
CPT;-33.9681;18.6046;Cape Town International Airport;ZA
CPV;-7.2692;-35.8950;Presidente João Suassuna Airport;BR
CPX;18.3133;-65.3043;Benjamin Rivera Noriega Airport;PR
CQD;32.2972;50.8422;Shahrekord Airport;IR
CQF;50.9608;1.9514;Calais-Dunkerque Airport;FR
CQM;38.8564;-3.9700;Ciudad Real Central Airport;ES
CQS;-12.4214;-64.2511;Costa Marques Airport;BR
CRA;44.3181;23.8885;Craiova Airport;RO
CRC;4.7583;-75.9558;Santa Ana Airport;CO
CRD;-45.7853;-67.4656;General E. Mosconi Airport;AR
CRE;33.8118;-78.7239;Grand Strand Airport;US
CRI;22.7456;-74.1824;Colonel Hill Airport;BS
CRK;15.1860;120.5603;Clark International Airport;PH
CRL;50.4600;4.4528;Brussels South Charleroi Airport;BE
CRM;12.5022;124.6359;Catarman National Airport;PH
CRP;27.7704;-97.5012;Corpus Christi International Airport;US
CRQ;-17.6500;-39.2539;Caravelas Airport;BR
CRS;45.4203;22.2522;C David Campbell Field Corsicana Municipal Airport;US
CRU;12.4769;-61.4722;Lauriston Airport;GD
CRV;38.9978;17.0797;Crotone Airport;IT
CRW;38.3732;-81.5932;Yeager Airport;US
CRZ;39.0833;63.6133;Turkmenabat Airport;TM
CSA;56.0590;-6.2440;Colonsay Airstrip;GB
CSF;49.2536;2.5192;Creil Air Base;FR
CSG;32.5163;-84.9389;Columbus Metropolitan Airport;US
CSH;65.0500;35.6667;Solovki Airport;RU
CSI;-28.8833;153.0583;Casino Airport;AU
CSK;12.3889;-16.7416;Cap Skirring Airport;SN
CSM;35.3400;-99.2000;Clinton Sherman Airport;US
CSO;51.8559;11.4180;Cochstedt Airport;DE
CSV;35.9513;-85.0850;Crossville Memorial Whitson Field;US
CSX;28.1867;113.2217;Changsha Huanghua International Airport;CN
CSY;56.0900;47.3483;Cheboksary Airport;RU
CTA;37.4664;15.0642;Catania-Fontanarossa Airport;IT
CTB;48.6083;-112.3761;Cut Bank International Airport;US
CTC;-28.5864;-65.7533;Catamarca Airport;AR
CTE;9.4500;-78.9670;Carti Airport;PA
CTG;10.4425;-75.5128;Rafael Nuñez International Airport;CO
CTL;-26.4133;146.2617;Charleville Airport;AU
CTM;18.5046;-88.3267;Chetumal International Airport;MX
CTN;-15.4461;145.1831;Cooktown Airport;AU
CTO;40.9067;-72.7917;Calverton Executive Airpark;US
CTS;42.7752;141.6923;New Chitose Airport;JP
CTT;43.2522;5.7836;Le Castellet Airport;FR
CTU;30.5783;103.9483;Chengdu Shuangliu International Airport;CN
CTY;29.6350;-83.1050;Cross City Airport;US
CTZ;34.9750;-78.3656;Sampson County Airport;US
CUC;7.9314;-72.5142;Camilo Daza International Airport;CO
CUE;-2.8894;-78.9844;Mariscal Lamar Airport;EC
CUF;44.5483;7.6222;Cuneo International Airport;IT
CUG;-33.2783;148.7633;Cudal Airport;AU
CUK;17.7347;-88.0325;Caye Caulker Airport;BZ
CUL;24.7651;-107.4752;Bachigualato Federal International Airport;MX
CUM;10.4539;-64.1297;Cumaná (Antonio José de Sucre) Airport;VE
CUN;21.0375;-86.8770;Cancún International Airport;MX
CUP;10.6667;-63.2500;General Francisco Bermúdez Airport;VE
CUQ;-13.7625;143.1125;Coen Airport;AU
CUR;12.1889;-68.9597;Hato International Airport;CW
CUT;-38.9333;-69.2500;Cutral-Co Airport;AR
CUU;28.7023;-105.9630;General Roberto Fierro Villalobos International Airport;MX
CUZ;-13.5358;-71.9388;Alejandro Velasco Astete International Airport;PE
CVG;39.0488;-84.6678;Cincinnati Northern Kentucky International Airport;US
CVJ;18.8345;-99.2616;General Mariano Matamoros Airport;MX
CVM;23.7025;-98.9558;General Pedro Jose Mendez International Airport;MX
CVN;34.4251;-103.0793;Clovis Municipal Airport;US
CVQ;-24.8800;113.6717;Carnarvon Airport;AU
CVS;34.3995;-103.3222;Cannon Air Force Base;US
CVT;52.3697;-1.4797;Coventry Airport;GB
CVU;39.6714;-31.1136;Corvo Airport;PT
CWA;44.7776;-89.6668;Central Wisconsin Airport;US
CWB;-25.5317;-49.1761;Afonso Pena Airport;BR
CWC;48.2600;25.9817;Chernivtsi International Airport;UA
CWF;30.2133;-93.1433;Chennault International Airport;US
CWL;51.3967;-3.3433;Cardiff International Airport;GB
CWT;-33.8467;148.6494;Cowra Airport;AU
CWW;-35.9936;146.3533;Corowa Airport;AU
CXA;7.6167;-66.1667;Caicara del Orinoco Airport;VE
CXB;21.4498;91.9648;Cox's Bazar Airport;BD
CXF;67.2522;-150.2039;Coldfoot Airport;US
CXH;49.2897;-123.1158;Vancouver Harbour Water Aerodrome;CA
CXI;1.9911;-157.3586;Cassidy International Airport;KI
CXJ;-29.1950;-51.1892;Hugo Cantergiani Regional Airport;BR
CXR;12.2275;109.1922;Cam Ranh Airport;VN
CXT;-20.0447;146.2719;Charters Towers Airport;AU
CYB;19.6870;-79.8828;Gerrard Smith International Airport;KY
CYC;17.7008;-88.0411;Caye Chapel Airport;BZ
CYF;60.1492;-164.2856;Chefornak Airport;US
CYI;23.4667;120.3833;Chiayi Airport;TW
CYO;21.6161;-81.5456;Vilo Acuña International Airport;CU
CYP;12.0770;124.5478;Calbayog Airport;PH
CYR;-34.4514;-57.7669;Laguna de Los Patos International Airport;UY
CYS;41.1557;-104.8118;Cheyenne Regional Jerry Olson Field;US
CYU;10.8581;121.0694;Cuyo Airport;PH
CYW;20.5460;-100.8866;Captain Rogelio Castillo National Airport;MX
CYX;68.7433;161.3367;Cherskiy Airport;RU
CYZ;15.9319;121.7556;Cauayan Airport;PH
CZA;20.6413;-88.4462;Chichen Itza International Airport;MX
CZE;11.4167;-69.6667;José Leonardo Chirinos Airport;VE
CZF;61.7809;-166.0395;Cape Romanzof LRRS Airport;US
CZH;18.3670;-88.4000;Corozal Municipal Airport;BZ
CZJ;9.5700;-79.3600;Corazón de Jesús Airport;PA
CZL;36.2853;6.6192;Mohamed Boudiaf International Airport;DZ
CZM;20.5222;-86.9297;Cozumel International Airport;MX
CZN;62.0712;-142.0484;Chisana Airport;US
CZS;-7.5994;-72.7694;Cruzeiro do Sul Airport;BR
CZU;9.3333;-75.2833;Las Brujas Airport;CO
CZW;50.8850;19.2047;Częstochowa-Rudniki;PL
CZX;31.9197;119.7786;Changzhou Benniu Airport;CN
DAB;29.1798;-81.0581;Daytona Beach International Airport;US
DAC;23.8433;90.3978;Dhaka / Hazrat Shahjalal International Airport;BD
DAD;16.0439;108.2004;Da Nang International Airport;VN
DAG;34.8537;-116.7867;Barstow Daggett Airport;US
DAK;25.4117;29.0017;Dakhla Airport;EG
DAL;32.8470;-96.8517;Dallas Love Field;US
DAM;33.4108;36.5133;Damascus International Airport;SY
DAN;36.5729;-79.3361;Danville Regional Airport;US
DAR;-6.8781;39.2026;Julius Nyerere International Airport;TZ
DAT;40.0603;113.4822;Datong Airport;CN
DAU;-9.0893;143.2131;Daru Airport;PG
DAV;8.3895;-82.4357;Enrique Malek International Airport;PA
DAX;31.3000;107.5000;Dachuan Airport;CN
DAY;39.9024;-84.2194;James M Cox Dayton International Airport;US
DBA;28.8792;64.4042;Dalbandin Airport;PK
DBB;30.9245;28.4614;El Alamein International Airport;EG
DBO;-32.2167;148.5750;Dubbo City Regional Airport;AU
DBQ;42.4020;-90.7095;Dubuque Regional Airport;US
DBU;7.8559;80.6567;Dambulu Oya Tank Seaplane Base;LK
DBV;42.5614;18.2682;Dubrovnik Airport;HR
DBY;-27.1550;151.2667;Dalby Airport;AU
DCA;38.8521;-77.0377;Ronald Reagan Washington National Airport;US
DCF;15.3861;-61.4006;Canefield Airport;DM
DCI;39.3547;8.9728;Decimomannu Air Base;IT
DCM;43.5550;2.2906;Castres-Mazamet Airport;FR
DCN;-17.5814;123.8283;RAAF Base Curtin;AU
DCY;29.3231;100.0533;Daocheng Yadin Airport;CN
DDC;37.7634;-99.9656;Dodge City Regional Airport;US
DDG;40.2000;124.2500;Dandong Airport;CN
DEA;29.9606;70.4853;Dera Ghazi Khan Airport;PK
DEB;47.4889;21.6153;Debrecen International Airport;HU
DEC;39.8347;-88.8663;Decatur Airport;US
DED;30.1872;78.1800;Dehradun Airport;IN
DEE;43.9670;145.6830;Mendeleyevo Airport;RU
DEF;32.3803;48.4047;Dezful Airport;IR
DEL;28.5687;77.1121;Indira Gandhi International Airport;IN
DEN;39.8617;-104.6732;Denver International Airport;US
DET;42.4092;-83.0099;Coleman A. Young Municipal Airport;US
DEZ;35.2855;40.1761;Deir ez-Zor Airport;SY
DFW;32.8968;-97.0380;Dallas Fort Worth International Airport;US
DGA;17.1830;-88.5830;Dangriga Airport;BZ
DGE;-32.5650;149.6094;Mudgee Airport;AU
DGO;24.1250;-104.5278;General Guadalupe Victoria International Airport;MX
DGT;9.3361;123.2994;Sibulan Airport;PH
DGX;51.4048;-3.4358;MOD St. Athan;GB
DHA;26.2643;50.1525;King Abdulaziz Air Base;SA
DHB;48.6160;-123.0000;Deer Harbor SPB;US
DHF;24.2500;54.5500;Al Dhafra Air Base;AE
DHI;28.7533;80.5819;Dhangarhi Airport;NP
DHM;32.1651;76.2634;Kangra Airport;IN
DHN;31.3213;-85.4497;Dothan Regional Airport;US
DHR;52.9244;4.7808;De Kooy Airport;NL
DHT;36.0226;-102.5473;Dalhart Municipal Airport;US
DIB;27.4810;95.0180;Dibrugarh Airport;IN
DIE;-12.3528;49.2950;Arrachart Airport;MG
DIG;27.7936;99.6772;Diqing Airport;CN
DIJ;47.2658;5.0950;Dijon-Bourgogne Airport;FR
DIK;46.7967;-102.8017;Dickinson Theodore Roosevelt Regional Airport;US
DIL;-8.5439;125.5219;Presidente Nicolau Lobato International Airport;TL
DIN;21.3977;103.0091;Dien Bien Phu Airport;VN
DIQ;-20.1814;-44.8694;Brigadeiro Cabral Airport;BR
DIR;9.6378;41.8489;Aba Tenna Dejazmach Yilma International Airport;ET
DIU;20.7170;70.9170;Diu Airport;IN
DIW;6.9667;81.0000;Mawella Lagoon Seaplane Base;LK
DIY;37.8925;40.2011;Diyarbakir Airport;TR
DJB;-1.6356;103.6431;Sultan Thaha Airport;ID
DJE;33.8756;10.7772;Djerba Zarzis International Airport;TN
DJG;24.2931;9.4519;Djanet Inedbirene Airport;DZ
DJJ;-2.5719;140.5114;Sentani Airport;ID
DKA;13.0078;7.6605;Katsina Airport;NG
DKR;14.7439;-17.4794;Léopold Sédar Senghor International Airport;SN
DKS;73.5167;80.3817;Dikson Airport;RU
DLA;4.0117;9.7083;Douala International Airport;CM
DLC;38.9600;121.5300;Zhoushuizi Airport;CN
DLE;47.0428;5.4350;Dole-Tavaux Airport;FR
DLF;29.3595;-100.7780;Laughlin Air Force Base;US
DLG;59.0446;-158.5054;Dillingham Airport;US
DLH;46.8421;-92.1936;Duluth International Airport;US
DLI;11.7505;108.3739;Lien Khuong Airport;VN
DLM;36.7126;28.7915;Dalaman International Airport;TR
DLS;45.6185;-121.1673;Columbia Gorge Regional the Dalles Municipal Airport;US
DLU;25.6494;100.3194;Dali Airport;CN
DLY;-18.7694;169.0014;Dillon's Bay Airport;VU
DLZ;43.5917;104.4299;Dalanzadgad Airport;MN
DMA;32.1665;-110.8832;Davis Monthan Air Force Base;US
DMB;42.8533;71.3033;Taraz Airport;KZ
DMD;-17.9333;138.8167;Doomadgee Airport;AU
DME;55.4083;37.9083;Domodedovo International Airport;RU
DMK;13.9126;100.6068;Don Mueang International Airport;TH
DMM;26.4712;49.7979;King Fahd International Airport;SA
DMN;32.2623;-107.7206;Deming Municipal Airport;US
DMT;-18.2328;-43.6506;Diamantino Airport;BR
DMU;25.8850;93.7700;Dimapur Airport;IN
DNA;26.3557;127.7675;Kadena Air Base;JP
DND;56.4525;-3.0258;Dundee Airport;GB
DNH;40.1611;94.8092;Dunhuang Airport;CN
DNK;48.3572;35.1006;Dnipropetrovsk International Airport;UA
DNQ;-35.5597;144.9472;Deniliquin Airport;AU
DNR;48.5878;-2.0800;Dinard-Pleurtuit-Saint-Malo Airport;FR
DNV;40.1992;-87.5959;Vermilion Regional Airport;US
DNX;12.5333;35.0583;Galegu Airport;SD
DNZ;37.7878;29.7050;Çardak Airport;TR
DOB;-5.7722;134.2125;Rar Gwamar Airport;ID
DOD;-6.1704;35.7494;Dodoma Airport;TZ
DOG;19.1526;30.4302;Dongola Airport;SD
DOH;25.2611;51.5651;Hamad International Airport;QA
DOK;48.0736;37.7397;Donetsk International Airport;UA
DOL;49.3633;0.1600;Deauville-Saint-Gatien Airport;FR
DOM;15.5414;-61.3011;Melville Hall Airport;DM
DOP;28.9857;82.8191;Dolpa Airport;NP
DOU;-22.1978;-54.9242;Dourados Airport;BR
DOV;39.1295;-75.4659;Dover Air Force Base;US
DOY;37.4544;118.4719;Dongying Shengli Airport;CN
DPA;41.9067;-88.2483;Dupage Airport;US
DPL;8.6011;123.3431;Dipolog Airport;PH
DPO;-41.1700;146.4289;Devonport Airport;AU
DPS;-8.7475;115.1692;Ngurah Rai (Bali) International Airport;ID
DQA;46.5833;125.0000;Saertu Airport;CN
DRA;36.6194;-116.0328;Desert Rock Airport;US
DRB;-17.3714;123.6594;Derby Airport;AU
DRG;66.0696;-162.7664;Deering Airport;US
DRK;8.7189;-83.6417;Drake Bay Airport;CR
DRO;37.1517;-107.7533;Durango La Plata County Airport;US
DRS;51.1328;13.7672;Dresden Airport;DE
DRT;29.3742;-100.9272;Del Rio International Airport;US
DRV;5.1583;73.1306;Dharavandhoo Airport;MV
DRW;-12.4161;130.8767;Darwin International Airport;AU
DSA;53.4747;-1.0044;Robin Hood Doncaster Sheffield Airport;GB
DSK;31.9094;70.8966;Dera Ismael Khan Airport;PK
DSM;41.5341;-93.6506;Des Moines International Airport;US
DSN;39.8500;110.0330;Ordos Ejin Horo Airport;CN
DTD;0.7170;116.4830;Datadawai Airport;ID
DTE;14.1333;122.9861;Daet Airport;PH
DTI;-18.2287;-43.6478;Diamantina Airport;BR
DTM;51.5183;7.6122;Dortmund Airport;DE
DTW;42.2124;-83.3534;Detroit Metropolitan Wayne County Airport;US
DUB;53.4214;-6.2700;Dublin Airport;IE
DUC;34.4709;-97.9599;Halliburton Field;US
DUD;-45.9281;170.1983;Dunedin Airport;NZ
DUG;31.4727;-109.6021;Bisbee Douglas International Airport;US
DUJ;41.1783;-78.8983;DuBois Regional Airport;US
DUR;-29.9656;30.9493;King Shaka International Airport;ZA
DUS;51.2809;6.7573;Düsseldorf International Airport;DE
DUT;53.9000;-166.5435;Unalaska Airport;US
DVD;-22.1111;43.2706;Andavadoaka Airport;MG
DVK;64.5113;-110.2895;Diavik Airport;CA
DVL;48.1142;-98.9088;Devils Lake Regional Airport;US
DVO;7.1255;125.6458;Francisco Bangoy International Airport;PH
DWB;-16.0830;45.3670;Soalala Airport;MG
DWC;24.8861;55.1722;Al Maktoum International Airport;AE
DWD;24.5000;44.4000;Dawadmi Domestic Airport;SA
DXB;25.2528;55.3644;Dubai International Airport;AE
DYA;-22.6217;148.3633;Dysart Airport;AU
DYG;29.1028;110.4433;Dayong Airport;CN
DYR;64.7350;177.7383;Ugolny Airport;RU
DYS;32.4222;-99.8597;Dyess Air Force Base;US
DYU;38.5433;68.8250;Dushanbe Airport;TJ
DZA;-12.8067;45.2806;Dzaoudzi Pamandzi International Airport;YT
DZN;47.7089;67.7392;Zhezkazgan Airport;KZ
DZO;-33.3564;-56.4961;Santa Bernardina International Airport;UY
EAA;64.7781;-141.1496;Eagle Airport;US
EAE;-17.0900;168.3420;Siwo Airport;VU
EAL;9.3300;166.8420;Elenak Airport;MH
EAM;17.6111;44.4200;Nejran Airport;SA
EAR;40.7238;-99.0068;Kearney Regional Airport;US
EAS;43.3565;-1.7906;San Sebastian Airport;ES
EAT;47.3984;-120.2062;Pangborn Memorial Airport;US
EAU;44.8658;-91.4843;Chippewa Valley Regional Airport;US
EBA;42.7628;10.2406;Marina Di Campo Airport;IT
EBB;0.0408;32.4405;Entebbe International Airport;UG
EBD;13.1529;30.2327;El Obeid Airport;SD
EBH;33.6861;1.0139;El Bayadh Airport;DZ
EBJ;55.5264;8.5525;Esbjerg Airport;DK
EBL;36.2376;43.9632;Erbil International Airport;IQ
EBM;31.7167;9.2667;El Borma Airport;TN
EBO;4.6000;168.7500;Ebon Airport;MH
EBU;45.5342;4.2972;Saint-Étienne-Bouthéon Airport;FR
ECA;-50.2803;-72.0532;Iosco County Airport;US
ECG;36.2606;-76.1746;Elizabeth City Regional Airport & Coast Guard Air Station;US
ECH;-36.1567;144.7617;Echuca Airport;AU
ECN;35.1489;33.4997;Ercan International Airport;CY
ECP;30.3582;-85.7956;Northwest Florida Beaches International Airport;US
EDA;55.9540;-133.6580;Edna Bay Seaplane Base;US
EDB;18.0250;30.9583;El Debba Airport;SD
EDF;61.2531;-149.7939;Elmendorf Air Force Base;US
EDI;55.9500;-3.3725;Edinburgh Airport;GB
EDL;0.4045;35.2389;Eldoret International Airport;KE
EDM;46.7025;-1.3817;La Roche-sur-Yon Airport;FR
EDO;39.5614;27.0247;Balıkesir Körfez Airport;TR
EDR;-14.8967;141.6094;Pormpuraaw Airport;AU
EDW;34.9054;-117.8837;Edwards Air Force Base;US
EED;34.7667;-114.6233;Needles Airport;US
EEK;60.2184;-162.0235;Eek Airport;US
EFD;29.6073;-95.1587;Ellington Airport;US
EFG;-9.1500;147.6500;Efogi Airport;PG
EFL;38.1200;20.5006;Kefallinia Airport;GR
EGC;44.8244;0.5206;Bergerac-Roumanière Airport;FR
EGE;39.6425;-106.9176;Eagle County Regional Airport;US
EGM;-8.5667;157.8667;Sege Airport;SB
EGN;13.4835;22.4725;Geneina Airport;SD
EGO;50.6433;36.5917;Belgorod International Airport;RU
EGS;65.2833;-14.4014;Egilsstaðir Airport;IS
EGV;45.9323;-89.2683;Eagle River Union Airport;US
EGX;58.1855;-157.3754;Egegik Airport;US
EHL;-41.9667;-71.5167;El Bolson Airport;AR
EHM;58.6465;-162.0628;Cape Newenham LRRS Airport;US
EIE;58.4742;92.1125;Yeniseysk Airport;RU
EIK;46.6700;38.1800;Yeysk Airport;RU
EIL;64.6657;-147.1015;Eielson Air Force Base;US
EIN;51.4500;5.3744;Eindhoven Airport;NL
EIS;18.4458;-64.5411;Terrance B. Lettsome International Airport;VG
EJA;7.0244;-73.8069;Yariguíes Airport;CO
EJH;26.1986;36.4761;Al Wajh Domestic Airport;SA
EJT;6.1333;171.9167;Enejit Airport;MH
EKA;40.8056;-124.1156;Murray Field;US
EKB;51.5900;75.2200;Ekibastuz Airport;KZ
EKI;37.0007;-101.8800;Elkhart Municipal Airport;US
EKN;38.8900;-79.8567;Elkins-Randolph Co-Jennings Randolph Field;US
EKO;40.8249;-115.7917;Elko Regional Airport;US
EKS;49.1830;142.0830;Shakhtyorsk Airport;RU
EKT;59.3522;16.7083;Eskilstuna Airport;SE
ELC;-12.0208;135.5722;Elcho Island Airport;AU
ELD;33.2210;-92.8133;South Arkansas Regional At Goodwin Field;US
ELF;13.6149;25.3246;El Fasher Airport;SD
ELG;30.5689;2.8647;El Golea Airport;DZ
ELH;25.4749;-76.6835;North Eleuthera Airport;BS
ELI;64.6150;-162.2705;Elim Airport;US
ELL;-23.7261;27.6878;Ellisras Matimba Airport;ZA
ELM;42.1599;-76.8916;Elmira Corning Regional Airport;US
ELO;47.8250;-91.8300;El Dorado Airport;AR
ELP;31.8067;-106.3778;El Paso International Airport;US
ELQ;26.3028;43.7741;Gassim Airport;SA
ELS;-33.0347;27.8222;Ben Schoeman Airport;ZA
ELT;28.2089;33.6456;El Tor Airport;EG
ELU;33.5131;6.7825;Guemar Airport;DZ
ELV;58.1952;-136.3474;Elfin Cove Seaplane Base;US
ELY;39.2997;-114.8418;Ely Airport Yelland Field;US
EMA;52.8311;-1.3281;East Midlands Airport;GB
EMD;-23.5675;148.1806;Emerald Airport;AU
EME;53.3910;7.2256;Emden Airport;DE
EMK;62.7861;-164.4907;Emmonak Airport;US
EML;47.0933;8.3067;Emmen Air Base;CH
EMP;38.3317;-96.1917;Emporia Municipal Airport;US
ENA;60.5731;-151.2450;Kenai Municipal Airport;US
ENC;48.6922;6.2261;Nancy-Essey Airport;FR
ENE;-8.8493;121.6606;Ende (H Hasan Aroeboesman) Airport;ID
ENF;68.3644;23.4275;Enontekio Airport;FI
ENH;30.3203;109.4850;Enshi Airport;CN
ENI;11.2020;119.4170;El Nido Airport;PH
ENK;54.3989;-7.6517;St Angelo Airport;GB
ENL;38.5151;-89.0911;Centralia Municipal Airport;US
ENN;64.5473;-149.0740;Nenana Municipal Airport;US
ENO;-34.5631;-58.7903;Encarnación Airport;PY
ENS;52.2758;6.8892;Twente Airfield;NL
ENT;11.3400;162.3283;Eniwetok Airport;MH
ENU;5.4672;7.5589;Akanu Ibiam International Airport;NG
ENV;40.7186;-114.0308;Wendover Airport;US
ENY;36.6369;109.5539;Yan'an Ershilipu Airport;CN
EOH;6.2203;-75.5906;Enrique Olaya Herrera Airport;CO
EOI;59.1914;-2.7739;Eday Airport;GB
EOR;6.7333;-61.5833;El Dorado Airport;VE
EOZ;7.0597;-69.4967;Elorza Airport;VE
EPH;47.3075;-119.5158;Ephrata Municipal Airport;US
EPL;48.3250;6.0667;Épinal-Mirecourt Airport;FR
EPR;-33.6858;121.8211;Esperance Airport;AU
EPU;58.4190;24.4728;Pärnu Airport;EE
EQS;-42.9333;-71.1442;Brigadier Antonio Parodi Airport;AR
ERC;39.7131;39.5206;Erzincan Airport;TR
ERF;50.9797;10.9581;Erfurt Airport;DE
ERH;31.9482;-4.4007;Moulay Ali Cherif Airport;MA
ERI;42.0819;-80.1761;Erie International Tom Ridge Field;US
ERL;43.6600;112.0000;Erenhot Saiwusu International Airport;CN
ERM;-27.6619;-52.2683;Erechim Airport;BR
ERN;-6.6667;-69.9167;Eirunepé Airport;BR
ERS;-22.6075;17.0792;Eros Airport;NA
ERZ;39.9561;41.1694;Erzurum International Airport;TR
ESB;40.1281;32.9950;Esenboğa International Airport;TR
ESC;45.7227;-87.0937;Delta County Airport;US
ESD;48.7082;-122.9105;Orcas Island Airport;US
ESE;31.7947;-116.6008;Ensenada Airport;MX
ESF;31.3947;-92.2958;Esler Regional Airport;US
ESH;50.8356;-0.2972;Shoreham Airport;GB
ESK;39.7822;30.5828;Eskişehir Air Base;TR
ESL;46.3733;44.3317;Elista Airport;RU
ESM;0.9786;-79.6267;General Rivadeneira Airport;EC
ESR;-26.3133;-69.7658;Ricardo García Posada Airport;CL
ESS;-37.7281;144.9019;Essen Mulheim Airport;DE
ESU;31.3972;-9.6819;Mogador Airport;MA
ETH;29.5594;34.9592;Eilat Airport;IL
ETR;3.4330;-79.9830;Santa Rosa International Airport;EC
ETZ;48.9783;6.2467;Metz-Nancy-Lorraine Airport;FR
EUA;-21.3783;-174.9575;Kaufana Airport;TO
EUG;44.1245;-123.2120;Mahlon Sweet Field;US
EUN;27.1517;-13.2192;Hassan I Airport;EH
EUX;17.4924;-62.9750;F. D. Roosevelt Airport;BQ
EVE;68.4889;16.6783;Harstad-Narvik Airpt;NO
EVG;62.0478;14.4242;Sveg Airport;SE
EVN;40.1473;44.3959;Zvartnots International Airport;AM
EVV;38.0370;-87.5324;Evansville Regional Airport;US
EVX;49.0286;1.2200;Évreux-Fauville (BA 105) Air Base;FR
EWB;41.6825;-70.9617;New Bedford Regional Airport;US
EWN;35.0731;-77.0431;Coastal Carolina Regional Airport;US
EWR;40.6925;-74.1687;Newark Liberty International Airport;US
EXI;58.4205;-135.4490;Excursion Inlet Seaplane Base;US
EXT;50.7344;-3.4139;Exeter International Airport;GB
EYK;63.6800;66.6800;Beloyarskiy Airport;RU
EYP;5.3191;-72.3841;El Yopal Airport;CO
EYW;24.5562;-81.7595;Key West International Airport;US
EZE;-34.8222;-58.5358;Ministro Pistarini International Airport;AR
EZS;38.6050;39.2939;Elazığ Airport;TR
EZV;63.5600;65.0300;Berezovo Airport;RU
FAA;10.0060;-10.7599;Faranah Airport;GN
FAB;51.2758;-0.7764;Farnborough Airport;GB
FAC;-16.6867;-145.3328;Faaite Airport;PF
FAE;62.0636;-7.2772;Vagar Airport;FO
FAH;32.3656;62.1651;Farah Airport;AF
FAI;64.8137;-147.8597;Fairbanks International Airport;US
FAK;-16.0500;-145.6500;False Island Seaplane Base;US
FAN;58.1003;6.6250;Lista Airport;NO
FAO;37.0144;-7.9659;Faro Airport;PT
FAR;46.9207;-96.8158;Hector International Airport;US
FAT;36.7762;-119.7181;Fresno Yosemite International Airport;US
FAV;-16.0542;-145.6570;Fakarava Airport;PF
FAY;34.9911;-78.8803;Fayetteville Regional Grannis Field;US
FBA;-2.5315;-66.0714;Fonte Boa Airport;BR
FBD;37.1219;70.5186;Fayzabad Airport;AF
FBE;-26.0589;-53.0633;Francisco Beltrão Airport;BR
FBK;64.8365;-147.6168;Ladd AAF Airfield;US
FBM;-11.5913;27.5309;Lubumbashi International Airport;CD
FBS;48.5436;-123.0061;Friday Harbor Seaplane Base;US
FCA;48.3105;-114.2560;Glacier Park International Airport;US
FCN;53.7683;8.6642;Nordholz Naval Airbase;DE
FCO;41.8003;12.2389;Leonardo da Vinci–Fiumicino Airport;IT
FCS;38.6784;-104.7566;Butts AAF (Fort Carson) Air Field;US
FDE;61.3911;5.7569;Førde Airport;NO
FDF;14.5922;-60.9964;Martinique Aimé Césaire International Airport;MQ
FDH;47.6713;9.5115;Friedrichshafen Airport;DE
FDK;39.4178;-77.3744;Frederick Municipal Airport;US
FDY;41.0120;-83.6686;Findlay Airport;US
FEC;-12.2025;-38.9061;João Durval Carneiro Airport;BR
FEG;40.3583;71.7450;Fergana International Airport;UZ
FEL;48.2057;11.2670;Fürstenfeldbruck Airport;DE
FEN;-3.8500;-32.4167;Fernando de Noronha Airport;BR
FEP;42.2462;-89.5820;Albertus Airport;US
FEZ;33.9272;-4.9792;Saïss Airport;MA
FFD;51.6833;-1.7833;RAF Fairford;GB
FGD;22.6667;-12.7333;Fderik Airport;MR
FGU;-15.8231;-140.8833;Fangatau Airport;PF
FHU;31.5885;-110.3444;Sierra Vista Municipal Libby Army Air Field;US
FHZ;-15.9922;-140.1647;Fakahina Airport;PF
FIH;-4.3856;15.4447;Ndjili International Airport;CD
FJR;25.1097;56.3306;Fujairah International Airport;AE
FKB;48.7794;8.0805;Karlsruhe Baden-Baden Airport;DE
FKI;0.4817;25.3380;Bangoka International Airport;CD
FKJ;36.1428;136.2239;Fukui Airport;JP
FKL;41.3778;-79.8603;Venango Regional Airport;US
FKQ;-2.9202;132.2670;Fakfak Airport;ID
FKS;37.2275;140.4281;Fukushima Airport;JP
FLA;1.5889;-75.5639;Gustavo Artunduaga Paredes Airport;CO
FLB;-6.8458;-43.0775;Cangapara Airport;BR
FLG;35.1386;-111.6711;Flagstaff Pulliam Airport;US
FLL;26.0727;-80.1527;Fort Lauderdale Hollywood International Airport;US
FLN;-27.6703;-48.5522;Hercílio Luz International Airport;BR
FLO;34.1854;-79.7239;Florence Regional Airport;US
FLR;43.8097;11.2039;Peretola Airport;IT
FLS;-40.0903;147.9933;Flinders Island Airport;AU
FLV;39.3683;-94.9150;Sherman Army Air Field;US
FLW;39.4580;-31.1321;Flores Airport;PT
FMA;-26.2128;-58.2281;Formosa Airport;AR
FMH;41.6583;-70.5217;Cape Cod Coast Guard Air Station;US
FMI;-5.8755;29.2494;Kalemie Airport;CD
FMM;47.9888;10.2395;Memmingen Allgau Airport;DE
FMN;36.7420;-108.2298;Four Corners Regional Airport;US
FMO;52.1346;7.6848;Münster Osnabrück Airport;DE
FMY;26.5867;-81.8633;Page Field;US
FNA;8.6165;-13.1956;Lungi International Airport;SL
FNB;53.6037;13.3101;Neubrandenburg Airport;DE
FNC;32.6942;-16.7781;Madeira Airport;PT
FNE;-8.5500;147.0830;Fane Airport;PG
FNI;43.7575;4.4164;Nîmes-Arles-Camargue Airport;FR
FNJ;39.2436;125.6758;Pyongyang Sunan International Airport;KP
FNL;40.4518;-105.0113;Fort Collins Loveland Municipal Airport;US
FNT;42.9654;-83.7436;Bishop International Airport;US
FOA;38.6649;-88.4530;Foula Airport;GB
FOC;25.9333;119.6617;Fuzhou Changle International Airport;CN
FOD;42.5512;-94.1918;Fort Dodge Regional Airport;US
FOE;38.9509;-95.6636;Topeka Regional Airport - Forbes Field;US
FOG;41.4339;15.5358;Foggia ""Gino Lisa"" Airport;IT
FOM;5.6444;10.7564;Foumban Nkounja Airport;CM
FON;10.4744;-84.5817;Arenal Airport;CR
FOR;-3.7761;-38.5325;Pinto Martins International Airport;BR
FOS;-30.8394;128.1136;Forrest Airport;AU
FPO;26.5587;-78.6956;Grand Bahama International Airport;BS
FPR;27.4950;-80.3683;St Lucie County International Airport;US
FRA;50.0333;8.5705;Frankfurt am Main International Airport;DE
FRB;-33.3633;147.9350;Forbes Airport;AU
FRC;-20.5897;-47.3819;Franca Airport;BR
FRD;48.5220;-123.0244;Friday Harbor Airport;US
FRE;-8.1075;159.5772;Fera/Maringe Airport;SB
FRG;40.7288;-73.4134;Republic Airport;US
FRL;44.1964;12.0706;Forlì Airport;IT
FRO;61.5836;5.0247;Florø Airport;NO
FRS;16.9233;-89.8700;Mundo Maya International Airport;GT
FRU;43.0617;74.4783;Manas International Airport;KG
FRW;-21.1608;27.4821;Francistown Airport;BW
FRZ;51.1145;9.2858;Fritzlar Airport;DE
FSC;41.5022;9.0967;Figari Sud-Corse Airport;FR
FSD;43.5820;-96.7419;Joe Foss Field Airport;US
FSK;37.7984;-94.7694;Fort Scott Municipal Airport;US
FSM;35.3366;-94.3674;Fort Smith Regional Airport;US
FSP;46.7632;-56.1743;St Pierre Airport;PM
FSS;57.6500;-3.5517;RAF Kinloss;GB
FSZ;34.7961;138.1894;Mt. Fuji Shizuoka Airport;JP
FTA;-19.5164;170.2319;Futuna Airport;VU
FTE;-50.2803;-72.0531;El Calafate Airport;AR
FTK;37.9071;-85.9720;Godman Army Air Field;US
FTU;-25.0381;46.9561;Tôlanaro Airport;MG
FTW;32.8198;-97.3624;Fort Worth Meacham International Airport;US
FTY;33.7792;-84.5222;Fulton County Airport Brown Field;US
FUE;28.4527;-13.8638;Fuerteventura Airport;ES
FUG;32.8817;115.7339;Fuyang Xiguan Airport;CN
FUJ;32.6664;128.8328;Fukue Airport;JP
FUK;33.5844;130.4517;Fukuoka Airport;JP
FUN;-8.5250;179.1950;Funafuti International Airport;TV
FUO;23.0833;113.0708;Foshan Shadi Airport;CN
FUT;-14.3114;-178.0661;Pointe Vele Airport;WF
FVM;-0.3090;73.4320;Fuvahmulah Airport;MV
FWA;40.9785;-85.1951;Fort Wayne International Airport;US
FWH;32.7683;-97.4417;NAS Fort Worth JRB/Carswell Field;US
FXE;26.1973;-80.1707;Fort Lauderdale Executive Airport;US
FYT;17.9161;19.1089;Faya Largeau Airport;TD
FYU;66.5715;-145.2504;Fort Yukon Airport;US
FYV;36.0053;-94.1700;Drake Field;US
FZO;51.5194;-2.5908;Bristol Filton Airport;GB
GAD;33.9726;-86.0890;Northeast Alabama Regional Airport;US
GAE;33.8833;10.1167;Gabès Matmata International Airport;TN
GAF;34.4156;8.8136;Gafsa Ksar International Airport;TN
GAH;-25.6153;151.6228;Gayndah Airport;AU
GAJ;38.4119;140.3711;Yamagata Airport;JP
GAL;64.7362;-156.9373;Edward G. Pitka Sr Airport;US
GAM;63.7668;-171.7328;Gambell Airport;US
GAN;-0.6933;73.1556;Gan International Airport;MV
GAO;20.0853;-75.1583;Mariana Grajales Airport;CU
GAQ;16.2483;0.0058;Gao Airport;ML
GAU;26.1044;91.5886;Lokpriya Gopinath Bordoloi International Airport;IN
GAX;-2.7670;9.9830;Gamba Airport;GA
GAY;24.7481;84.9425;Gaya Airport;IN
GBB;40.8088;47.7252;Gabala International Airport;AZ
GBD;38.3443;-98.8592;Great Bend Municipal Airport;US
GBE;-24.5558;25.9189;Sir Seretse Khama International Airport;BW
GBJ;15.8686;-61.2722;Les Bases Airport;GP
GBT;36.9094;54.4014;Gorgan Airport;IR
GCC;44.3489;-105.5394;Gillette Campbell County Airport;US
GCH;30.3376;50.8280;Gachsaran Airport;IR
GCI;49.4350;-2.6020;Guernsey Airport;GG
GCJ;-25.9871;28.1405;Grand Central Airport;ZA
GCK;37.9275;-100.7243;Garden City Regional Airport;US
GCM;19.2924;-81.3592;Owen Roberts International Airport;KY
GCN;35.9523;-112.1470;Grand Canyon National Park Airport;US
GCW;35.9903;-113.8164;Grand Canyon West Airport;US
GDE;5.9351;43.5786;Gode Airport;ET
GDG;53.4667;125.8133;Magdagachi Airport;RU
GDL;20.5214;-103.3108;Don Miguel Hidalgo Y Costilla International Airport;MX
GDN;54.3776;18.4662;Gdańsk Lech Wałęsa Airport;PL
GDO;7.2333;-70.8000;Guasdalito Airport;VE
GDQ;12.5199;37.4340;Gonder Airport;ET
GDT;21.4445;-71.1423;JAGS McCartney International Airport;TC
GDV;47.1386;-104.8072;Dawson Community Airport;US
GDX;59.9100;150.7183;Sokol Airport;RU
GDZ;44.5703;38.0122;Gelendzhik Airport;RU
GEA;-22.2631;166.4681;Nouméa Magenta Airport;NC
GEC;35.2333;33.7328;Geçitkale Air Base;CY
GEG;47.6198;-117.5337;Spokane International Airport;US
GEL;-28.2817;-54.1683;Santo Ângelo Airport;BR
GEO;6.4989;-58.2544;Cheddi Jagan International Airport;GY
GER;21.8383;-82.7792;Rafael Cabrera Airport;CU
GES;6.1075;125.2328;General Santos International Airport;PH
GET;-28.7975;114.7061;Geraldton Airport;AU
GEV;67.1331;20.8122;Gällivare Airport;SE
GEY;44.5168;-108.0828;South Big Horn County Airport;US
GFA;47.5046;-111.1873;Malmstrom Air Force Base;US
GFF;-34.2517;146.0667;Griffith Airport;AU
GFK;47.9493;-97.1761;Grand Forks International Airport;US
GFL;43.3411;-73.6103;Floyd Bennett Memorial Airport;US
GFN;-29.7633;153.0286;Grafton Airport;AU
GFY;-19.6000;18.1333;Grootfontein Airport;NA
GGG;32.3840;-94.7115;East Texas Regional Airport;US
GGM;0.2664;34.7833;Kakamega Airport;KE
GGS;-48.7836;-70.1608;Gobernador Gregores Airport;AR
GGT;23.5626;-75.8780;Exuma International Airport;BS
GGW;48.2125;-106.6147;Wokal Field Glasgow International Airport;US
GHA;32.3817;3.7994;Noumérat - Moufdi Zakaria Airport;DZ
GHB;25.2847;-76.3310;Governor's Harbour Airport;BS
GHC;25.7383;-77.8401;Great Harbour Cay Airport;BS
GHE;8.0670;-78.3670;Garachiné Airport;PA
GHF;49.6483;9.9667;Giebelstadt Airport;DE
GHT;25.1369;10.1450;Ghat Airport;LY
GHU;-33.0108;-58.6125;Gualeguaychu Airport;AR
GIB;36.1500;-5.3500;Gibraltar Airport;GI
GIC;-9.2333;142.2183;Boigu Airport;AU
GIG;-22.8100;-43.2506;Rio Galeão – Tom Jobim International Airport;BR
GII;11.4011;-9.1868;Siguiri Airport;GN
GIL;35.9244;74.3403;Gilgit Airport;PK
GIR;4.2761;-74.7958;Santiago Vila Airport;CO
GIS;-38.6633;177.9783;Gisborne Airport;NZ
GIU;7.9558;80.7281;Sigiriya Air Force Base;LK
GIZ;16.9011;42.5858;Jizan Regional Airport;SA
GJA;16.4454;-85.9066;La Laguna Airport;HN
GJL;36.7944;5.8736;Jijel Ferhat Abbas Airport;DZ
GJM;-10.7881;-65.2811;Guajará-Mirim Airport;BR
GJT;39.1224;-108.5267;Grand Junction Regional Airport;US
GKA;-6.0844;145.3966;Goroka Airport;PG
GKE;50.9608;6.0425;Geilenkirchen Airport;DE
GKK;0.7308;73.4331;Kooddoo Airport;MV
GKN;62.1549;-145.4566;Gulkana Airport;US
GLA;55.8719;-4.4331;Glasgow International Airport;GB
GLD;39.3706;-101.6989;Renner Field-Goodland Municipal Airport;US
GLE;33.6514;-97.1969;Gainesville Municipal Airport;US
GLF;8.6538;-83.1805;Golfito Airport;CR
GLH;33.4828;-90.9856;Mid Delta Regional Airport;US
GLI;-29.6767;151.6917;Glen Innes Airport;AU
GLK;6.7808;47.4547;Galcaio Airport;SO
GLN;29.0267;-10.0503;Goulimime Airport;MA
GLO;51.8942;-2.1672;Gloucestershire Airport;GB
GLS;29.2653;-94.8604;Scholes International At Galveston Airport;US
GLT;-23.8714;151.2217;Gladstone Airport;AU
GLV;64.5505;-163.0072;Golovin Airport;US
GLZ;51.5681;4.9331;Gilze Rijen Air Base;NL
GMA;3.2667;19.7667;Gemena Airport;CD
GMB;8.1173;34.5634;Gambella Airport;ET
GME;52.5272;31.0183;Gomel Airport;BY
GMI;-6.2711;150.3306;Gasmata Island Airport;PG
GML;50.5983;30.1967;Gostomel Airport;UA
GMN;-42.4617;171.1900;Greymouth Airport;NZ
GMO;10.2894;11.1717;Gombe Lawanti International Airport;NG
GMP;37.5569;126.7975;Gimpo International Airport;KR
GMR;-23.0833;-134.8833;Totegegie Airport;PF
GMU;34.8481;-82.3500;Greenville Downtown Airport;US
GMZ;28.0296;-17.2146;La Goemra Airport;ES
GNA;53.6017;24.0550;Hrodna Airport;BY
GNB;45.3631;5.3328;Grenoble-Isère Airport;FR
GND;12.0039;-61.7861;Point Salines International Airport;GD
GNI;22.6744;121.4583;Lyudao Airport;TW
GNM;-14.2064;-42.7506;Guanambi Airport;BR
GNR;-38.9833;-67.6000;Dr. Arturo H. Illia Airport;AR
GNS;1.1664;97.7047;Binaka Airport;ID
GNT;35.1653;-107.9006;Grants-Milan Municipal Airport;US
GNU;59.1174;-161.5774;Goodnews Airport;US
GNV;29.6900;-82.2719;Gainesville Regional Airport;US
GNY;37.0919;38.8462;Şanlıurfa GAP Airport;TR
GOA;44.4131;8.8378;Genoa Cristoforo Colombo Airport;IT
GOH;64.1909;-51.6781;Godthaab / Nuuk Airport;GL
GOI;15.3797;73.8278;Dabolim Airport;IN
GOJ;56.2300;43.7833;Nizhny Novgorod Strigino International Airport;RU
GOM;-1.6709;29.2384;Goma International Airport;CD
GON;41.3300;-72.0451;Groton New London Airport;US
GOO;-28.5217;150.3200;Goondiwindi Airport;AU
GOP;26.7397;83.4497;Gorakhpur Airport;IN
GOQ;34.6333;98.8667;Golmud Airport;CN
GOT;57.6600;12.2911;Gothenburg-Landvetter Airport;SE
GOU;9.3367;13.3811;Garoua International Airport;CM
GOV;-12.2700;136.8183;Gove Airport;AU
GOZ;43.1517;25.7117;Gorna Oryahovitsa Airport;BG
GPA;38.1500;21.4167;Araxos Airport;GR
GPB;-25.3881;-51.5244;Tancredo Thomas de Faria Airport;BR
GPI;2.5701;-77.8986;Juan Casiano Airport;CO
GPO;-35.6875;-63.7417;General Pico Airport;AR
GPS;-0.4539;-90.2658;Seymour Airport;EC
GPT;30.4073;-89.0701;Gulfport Biloxi International Airport;US
GPZ;47.2111;-93.5098;Grand Rapids Itasca Co-Gordon Newstrom field;US
GRB;44.4851;-88.1296;Austin Straubel International Airport;US
GRF;47.0792;-122.5807;Gray Army Air Field;US
GRI;40.9675;-98.3096;Central Nebraska Regional Airport;US
GRJ;-34.0111;22.3806;George Airport;ZA
GRK;31.0672;-97.8289;Robert Gray  Army Air Field Airport;US
GRO;41.9010;2.7605;Girona Airport;ES
GRP;-11.7433;-49.1250;Gurupi Airport;BR
GRQ;53.1250;6.5833;Eelde Airport;NL
GRR;42.8808;-85.5228;Gerald R. Ford International Airport;US
GRS;42.7597;11.0719;Grosseto Air Base;IT
GRU;-23.4356;-46.4731;Guarulhos - Governador André Franco Montoro International Airport;BR
GRV;43.3330;45.7000;Grozny North Airport;RU
GRW;39.0922;-28.0298;Graciosa Airport;PT
GRX;37.1887;-3.7774;Federico Garcia Lorca Airport;ES
GRY;66.5547;-18.0175;Grímsey Airport;IS
GRZ;46.9931;15.4392;Graz Airport;AT
GSB;35.3393;-77.9607;Seymour Johnson Air Force Base;US
GSE;57.7756;11.8706;Gothenburg City Airport;SE
GSM;26.7519;55.8972;Gheshm Airport;IR
GSO;36.0977;-79.9373;Piedmont Triad International Airport;US
GSP;34.8956;-82.2188;Greenville Spartanburg International Airport;US
GSQ;22.5833;28.7161;Shark El Oweinat International Airport;EG
GST;58.4243;-135.7073;Gustavus Airport;US
GSU;14.1333;35.3167;Azaza Airport;SD
GTA;-8.7500;158.2000;Gatokae Airport;SB
GTB;44.0556;-75.7195;Genting Airport;MY
GTE;-13.9750;136.4600;Groote Eylandt Airport;AU
GTF;47.4820;-111.3707;Great Falls International Airport;US
GTO;0.6383;122.8522;Jalaluddin Airport;ID
GTR;33.4503;-88.5914;Golden Triangle Regional Airport;US
GTS;-26.9500;133.6000;Granite Downs Airport;AU
GTZ;-2.0169;34.2210;Kirawira B Aerodrome;TZ
GUA;14.5817;-90.5267;La Aurora Airport;GT
GUC;38.5339;-106.9330;Gunnison Crested Butte Regional Airport;US
GUH;-30.9611;150.2506;Gunnedah Airport;AU
GUI;10.5800;-62.3183;Guiria Airport;VE
GUJ;-22.7911;-45.2039;Guaratinguetá Airport;BR
GUL;-34.8089;149.7278;Goulburn Airport;AU
GUM;13.4839;144.7972;Antonio B Won Pat International;US
GUP;35.5111;-108.7893;Gallup Municipal Airport;US
GUQ;9.0167;-69.7333;Guanare Airport;VE
GUR;-10.3104;150.3341;Gurney Airport;PG
GUT;51.9237;8.3075;Gütersloh Air Base;DE
GUW;47.1219;51.8214;Atyrau Airport;KZ
GUY;36.6853;-101.5078;Guymon Municipal Airport;US
GUZ;-20.6500;-40.4917;Guarapari Airport;BR
GVA;46.2383;6.1094;Geneva Cointrin International Airport;CH
GVE;38.1567;-78.1650;Gordonsville Municipal Airport;US
GVN;48.5800;140.1800;Maygatka Airport.;RU
GVR;-18.8947;-41.9817;Coronel Altino Machado de Oliveira Airport;BR
GVT;33.0678;-96.0653;Majors Airport;US
GVX;60.5933;16.9514;Gävle Sandviken Airport;SE
GWD;25.2333;62.3295;Gwadar International Airport;PK
GWE;-19.4417;29.8583;Thornhill Air Base;ZW
GWL;26.2933;78.2278;Gwalior Airport;IN
GWO;33.4950;-90.0850;Greenwood–Leflore Airport;US
GWT;54.9116;8.3424;Westerland Sylt Airport;DE
GWY;53.3002;-8.9412;Galway Airport;IE
GXF;15.9636;48.7850;Sayun International Airport;YE
GXG;-7.7667;15.3000;Negage Airport;AO
GXH;34.8106;102.6447;Gannan Xiahe Airport;CN
GXQ;-45.5928;-72.1019;Teniente Vidal Airport;CL
GYA;-10.8217;-65.3458;Capitán de Av. Emilio Beltrán Airport;BO
GYD;40.4675;50.0467;Heydar Aliyev International Airport;AZ
GYE;-2.1581;-79.8839;José Joaquín de Olmedo International Airport;EC
GYI;-1.6772;29.2589;Gisenyi Airport;RW
GYL;-16.6369;128.4500;Argyle Airport;AU
GYM;27.9693;-110.9178;General José María Yáñez International Airport;MX
GYN;-16.6297;-49.2267;Santa Genoveva Airport;BR
GYP;-26.2833;152.7000;Gympie Airport;AU
GYR;33.4237;-112.3745;Phoenix Goodyear Airport;US
GYS;32.3911;105.7017;Guangyuan Airport;CN
GYY;41.6163;-87.4128;Gary Chicago International Airport;US
GZA;31.2464;34.2761;Yasser Arafat International Airport;PS
GZO;-8.0970;156.8630;Nusatupe Airport;SB
GZP;36.2992;32.3006;Gazipaşa Airport;TR
GZT;36.9489;37.4792;Gaziantep International Airport;TR
HAA;70.4867;22.1397;Hasvik Airport;NO
HAC;33.1150;139.7856;Hachijojima Airport;JP
HAD;56.6908;12.8200;Halmstad Airport;SE
HAE;36.1916;-113.0924;Lava Falls Heliport;US
HAH;-11.5365;43.2713;Prince Said Ibrahim International Airport;KM
HAJ;52.4602;9.6835;Hannover Airport;DE
HAK;19.9333;110.4567;Haikou Meilan International Airport;CN
HAM;53.6303;9.9883;Hamburg Airport;DE
HAN;21.2217;105.8056;Noi Bai International Airport;VN
HAQ;6.7464;73.1686;Hanimaadhoo Airport;MV
HAS;27.4398;41.6863;Ha'il Airport;SA
HAU;59.3432;5.2125;Haugesund Airport;NO
HAV;22.9892;-82.4092;José Martí International Airport;CU
HAW;51.8331;-4.9611;Haverfordwest Airport;GB
HBA;-42.8367;147.5100;Hobart International Airport;AU
HBE;30.9181;29.6958;Borg El Arab International Airport;EG
HBR;34.9914;-99.0514;Hobart Regional Airport;US
HBU;48.8556;103.4722;Bulgan Sum Airport;MN
HBX;15.3617;75.0849;Hubli Airport;IN
HCN;22.0411;120.7302;Hengchun Airport;TW
HCQ;-18.2333;127.6700;Halls Creek Airport;AU
HCR;62.1883;-159.7749;Holy Cross Airport;US
HDB;49.3933;8.6517;Heidelberg Army Heliport;DE
HDD;25.3000;68.3833;Hyderabad Airport;PK
HDF;53.8787;14.1523;Heringsdorf Airport;DE
HDG;36.6000;114.4600;Handan Airport;CN
HDM;34.8694;48.5506;Hamadan Airport;IR
HDN;40.5203;-107.3047;Yampa Valley Airport;US
HDS;-24.3546;31.0504;Hoedspruit Air Force Base Airport;ZA
HDY;6.9328;100.3950;Hat Yai International Airport;TH
HEA;34.2161;62.2264;Herat Airport;AF
HEH;20.7433;96.7930;Heho Airport;MM
HEI;54.1550;8.9033;Heide-Büsum Airport;DE
HEK;50.2500;127.3000;Heihe Airport;CN
HEL;60.3172;24.9633;Helsinki Vantaa Airport;FI
HEM;60.2539;25.0442;Helsinki Malmi Airport;FI
HER;35.3397;25.1803;Heraklion International Nikos Kazantzakis Airport;GR
HET;40.8517;111.8250;Baita International Airport;CN
HEW;37.8958;23.7278;Athen Helenikon Airport;GR
HEZ;31.6133;-91.2967;Hardy-Anders Field / Natchez-Adams County Airport;US
HFA;32.8094;35.0431;Haifa International Airport;IL
HFD;41.7367;-72.6333;Hartford Brainard Airport;US
HFE;31.7833;117.3000;Hefei Luogang International Airport;CN
HFN;64.2956;-15.2272;Hornafjörður Airport;IS
HFS;60.0211;13.5789;Hagfors Airport;SE
HFT;70.6797;23.6686;Hammerfest Airport;NO
HGA;9.4878;44.0875;Egal International Airport;SO
HGD;-20.8164;144.2242;Hughenden Airport;AU
HGH;30.2283;120.4317;Hangzhou Xiaoshan International Airport;CN
HGL;54.1853;7.9158;Helgoland-Düne Airport;DE
HGN;19.3017;97.9750;Mae Hong Son Airport;TH
HGR;39.7085;-77.7265;Hagerstown Regional Richard A Henson Field;US
HGU;-5.8333;144.3000;Mount Hagen Kagamuga Airport;PG
HHE;40.5522;141.4672;Hachinohe Airport;JP
HHH;32.2244;-80.6975;Hilton Head Airport;US
HHN;49.9487;7.2639;Frankfurt-Hahn Airport;DE
HHP;22.2500;114.1833;Shun Tak Heliport;HK
HHQ;12.6303;99.9533;Hua Hin Airport;TH
HHR;33.9233;-118.3350;Jack Northrop Field Hawthorne Municipal Airport;US
HHZ;-17.5447;-142.6144;Hikueru Atoll Airport;PF
HIA;33.5300;119.2300;Lianshui Airport;CN
HIB;47.3867;-92.8389;Range Regional Airport;US
HID;-10.5881;142.2889;Horn Island Airport;AU
HIF;41.1239;-111.9730;Hill Air Force Base;US
HIJ;34.4360;132.9194;Hiroshima Airport;JP
HIL;6.0775;44.7639;Shilavo Airport;ET
HIN;35.0914;128.0761;Sacheon Air Base;KR
HIO;45.5404;-122.9498;Portland Hillsboro Airport;US
HIR;-9.4183;160.0533;Honiara International Airport;SB
HIS;-20.0600;148.8814;Hayman Island Resort Seaplane Base;AU
HIW;34.3668;132.4139;Hiroshimanishi Airport;JP
HJJ;27.1100;109.0400;Zhijiang Airport;CN
HJR;24.8194;79.9200;Khajuraho Airport;IN
HKB;63.8676;-148.9688;Healy Lake Airport;US
HKD;41.7700;140.8219;Hakodate Airport;JP
HKG;22.3089;113.9146;Chek Lap Kok International Airport;HK
HKG;22.3089;113.9146;Hong Kong International Airport Kai Tak;HK
HKK;-42.7136;170.9853;Hokitika Airfield;NZ
HKN;-5.4622;150.4049;Kimbe Airport;PG
HKT;8.1125;98.3093;Phuket International Airport;TH
HKY;35.7411;-81.3894;Hickory Regional Airport;US
HLA;-25.9333;27.9222;Lanseria Airport;ZA
HLC;39.3789;-99.8314;Hill City Municipal Airport;US
HLD;49.2050;119.8250;Dongshan Airport;CN
HLF;57.5258;15.8233;Hultsfred Airport;SE
HLG;40.1750;-80.6464;Wheeling Ohio County Airport;US
HLH;46.0830;122.0170;Ulanhot Airport;CN
HLN;46.6067;-111.9827;Helena Regional Airport;US
HLP;-6.2675;106.8864;Halim Perdanakusuma International Airport;ID
HLT;-37.6450;142.0583;Hamilton Airport;AU
HLU;-21.2564;165.6175;Nesson Airport;NC
HLZ;-37.8664;175.3353;Hamilton International Airport;NZ
HMA;61.0283;69.0867;Khanty Mansiysk Airport;RU
HMB;22.5806;28.7207;Sohag International Airport;EG
HME;31.6739;6.1406;Oued Irara Airport;DZ
HMI;42.8414;93.6692;Hami Airport;CN
HMJ;49.3597;26.9334;Khmelnytskyi Airport;UA
HMN;32.8517;-106.1017;Holloman Air Force Base;US
HMO;29.0958;-111.0479;General Ignacio P. Garcia International Airport;MX
HMV;65.8061;15.0828;Hemavan Airport;SE
HNA;39.4286;141.1353;Hanamaki Airport;JP
HND;35.5533;139.7812;Tokyo International Airport;JP
HNH;58.0961;-135.4097;Hoonah Airport;US
HNL;21.3187;-157.9224;Honolulu International Airport;US
HNM;20.7956;-156.0144;Hana Airport;US
HNS;59.2438;-135.5235;Haines Airport;US
HOB;32.6875;-103.2169;Lea County Regional Airport;US
HOD;14.7514;42.9761;Hodeidah International Airport;YE
HOE;20.5000;103.7500;Ban Huoeisay Airport;LA
HOF;25.2854;49.4853;Al Ahsa Airport;SA
HOG;20.7856;-76.3150;Frank Pais International Airport;CU
HOH;47.3853;9.7006;Hohenems-Dornbirn Airport;AT
HOI;-18.0644;-140.9569;Hao Airport;PF
HOM;59.6456;-151.4766;Homer Airport;US
HON;44.3852;-98.2285;Huron Regional Airport;US
HOP;36.6686;-87.4961;Campbell AAF (Fort Campbell) Air Field;US
HOQ;50.2888;11.8549;Hof-Plauen Airport;DE
HOR;38.5200;-28.7164;Horta Airport;PT
HOT;34.4781;-93.0961;Memorial Field;US
HOU;29.6454;-95.2789;William P Hobby Airport;US
HOV;62.1800;6.0743;Ørsta–Volda Airport;NO
HPA;-19.7781;-174.3467;Lifuka Island Airport;TO
HPB;61.5239;-166.1466;Hooper Bay Airport;US
HPH;20.8207;106.7245;Cat Bi International Airport;VN
HPN;41.0670;-73.7076;Westchester County Airport;US
HQM;46.9712;-123.9365;Bowerman Airport;US
HRB;45.6167;126.2500;Taiping Airport;CN
HRE;-17.9328;31.0939;Harare International Airport;ZW
HRG;27.1786;33.8008;Hurghada International Airport;EG
HRI;6.2845;81.1241;Mattala Rajapaksa International Airport;LK
HRK;49.9250;36.2917;Kharkiv International Airport;UA
HRL;26.2285;-97.6544;Valley International Airport;US
HRM;32.9327;3.2981;Hassi R'Mel Airport;DZ
HRO;36.2614;-93.1547;Boone County Airport;US
HRR;18.4697;-69.9694;Herrera Airport;CO
HSB;37.8113;-88.5503;Harrisburg-Raleigh Airport;US
HSG;33.1497;130.3022;Saga Airport;JP
HSI;40.6053;-98.4278;Hastings Municipal Airport;US
HSK;42.0809;-0.3235;Huesca/Pirineos Airport;ES
HSL;65.6979;-156.3514;Huslia Airport;US
HSM;-36.6711;142.1733;Horsham Airport;AU
HSN;29.9342;122.3622;Zhoushan Airport;CN
HST;25.4886;-80.3833;Homestead ARB Airport;US
HSV;34.6372;-86.7751;Huntsville International Carl T Jones Field;US
HSZ;24.8167;120.9333;Hsinchu Air Base;TW
HTA;52.0267;113.3050;Chita-Kadala Airport;RU
HTG;71.9783;102.4933;Khatanga Airport;RU
HTI;-20.3583;148.9517;Hamilton Island Airport;AU
HTL;44.3597;-84.6711;Roscommon County - Blodgett Memorial Airport;US
HTM;50.4519;100.1670;Khatgal Airport;MN
HTN;37.0333;79.8667;Hotan Airport;CN
HTS;38.3667;-82.5580;Tri-State/Milton J. Ferguson Field;US
HTY;36.5736;36.1539;Hatay Airport;TR
HUA;34.6787;-86.6848;Redstone Army Air Field;US
HUE;14.2500;36.5830;Humera Airport;ET
HUF;39.4633;-87.3125;Terre Haute International Hulman Field;US
HUH;-16.6881;-151.0261;Huahine-Fare Airport;PF
HUI;16.3992;107.7064;Phu Bai Airport;VN
HUL;46.1233;-67.7917;Houlton International Airport;US
HUN;24.0233;121.6100;Hualien Airport;TW
HUQ;29.1101;15.9656;Hon Airport;LY
HUS;66.0391;-154.2647;Hughes Airport;US
HUT;38.0654;-97.8606;Hutchinson Municipal Airport;US
HUU;-9.9000;-76.2167;Alferez Fap David Figueroa Fernandini Airport;PE
HUV;61.7683;17.0806;Hudiksvall Airport;SE
HUW;-7.5336;-63.0505;Humaitá Airport;BR
HUX;15.7753;-96.2626;Bahías de Huatulco International Airport;MX
HUY;53.5744;-0.3508;Humberside Airport;GB
HVA;-14.6297;47.7638;Analalava Airport;MG
HVB;-25.3250;152.8900;Hervey Bay Airport;AU
HVD;47.9541;91.6282;Khovd Airport;MN
HVG;71.0097;25.9836;Valan Airport;NO
HVN;41.2638;-72.8868;Tweed New Haven Airport;US
HVR;48.5431;-109.7622;Havre City County Airport;US
HWD;37.6589;-122.1217;Hayward Executive Airport;US
HWN;-18.6339;27.0081;Hwange National Park Airport;ZW
HXX;-34.5317;144.8300;Hay Airport;AU
HYA;41.6694;-70.2803;Barnstable Municipal Boardman Polando Field;US
HYD;17.4534;78.4624;Rajiv Gandhi International Airport;IN
HYG;55.2063;-132.8283;Hydaburg Seaplane Base;US
HYL;55.4816;-132.6461;Hollis Clark Bay Seaplane Base;US
HYN;28.5622;121.4286;Huangyan Luqiao Airport;CN
HYS;38.8422;-99.2732;Hays Regional Airport;US
HZB;50.6167;2.6400;Merville-Calonne Airport;FR
HZG;33.0636;107.0081;Hanzhong Chenggu Airport;CN
HZH;26.3350;109.1500;Liping Airport;CN
HZK;65.9525;-17.4258;Húsavík Airport;IS
IAA;67.4417;86.6233;Igarka Airport;RU
IAB;37.6229;-97.2733;Mc Connell Air Force Base;US
IAD;38.9445;-77.4558;Washington Dulles International Airport;US
IAG;43.1073;-78.9462;Niagara Falls International Airport;US
IAH;29.9844;-95.3414;George Bush Intercontinental Houston Airport;US
IAM;28.0514;9.6428;In Aménas Airport;DZ
IAN;66.9760;-160.4365;Bob Baker Memorial Airport;US
IAO;9.8591;126.0140;Siargao Airport;PH
IAR;57.5600;40.1567;Tunoshna Airport;RU
IAS;47.1788;27.6200;Iaşi Airport;RO
IBA;7.3608;3.9781;Ibadan Airport;NG
IBE;4.4214;-75.1325;Perales Airport;CO
IBL;-21.7058;35.4514;Indigo Bay Lodge Airport;MZ
IBR;36.1817;140.4147;Hyakuri Airport;JP
IBZ;38.8729;1.3731;Ibiza Airport;ES
ICA;4.3333;-61.7333;Icabarú Airport;VE
ICI;-17.7433;-179.3422;Cicia Airport;FJ
ICK;5.9628;-57.0333;Nieuw Nickerie Airport;SR
ICN;37.4625;126.4392;Incheon International Airport;KR
ICR;20.6833;-75.5333;Nicaro Airport;CU
ICT;37.6499;-97.4331;Wichita Mid Continent Airport;US
IDA;43.5145;-112.0702;Idaho Falls Regional Airport;US
IDB;61.8697;12.6894;Idre Airport;SE
IDO;-11.5731;-50.6678;Santa Izabel do Morro Airport;BR
IDR;22.7228;75.8064;Devi Ahilyabai Holkar Airport;IN
IEG;52.1385;15.7986;Zielona Góra-Babimost Airport;PL
IEJ;26.7226;127.7866;Ie Jima Airport;JP
IEV;50.4017;30.4517;Kiev Zhuliany International Airport;UA
IFJ;66.0581;-23.1353;Ísafjörður Airport;IS
IFL;-17.5611;146.0106;Innisfail Airport;AU
IFN;32.7508;51.8628;Esfahan Shahid Beheshti International Airport;IR
IFO;48.8850;24.6867;Ivano-Frankivsk International Airport;UA
IFP;35.1611;-114.5595;Laughlin Bullhead International Airport;US
IGA;20.9750;-73.6669;Inagua Airport;BS
IGD;39.9744;43.8800;Iğdır Airport;TR
IGG;59.3240;-155.9018;Igiugig Airport;US
IGH;-18.6656;146.1475;Ingham Airport;AU
IGL;38.5119;27.0108;Çiğli Airport;TR
IGM;35.2594;-113.9381;Kingman Airport;US
IGN;8.1500;124.2083;Iligan Airport;PH
IGR;-25.7372;-54.4733;Cataratas Del Iguazú International Airport;AR
IGS;48.7157;11.5340;Ingolstadt Manching Airport;DE
IGU;-25.6003;-54.4850;Cataratas International Airport;BR
IHR;27.2360;60.7196;Iran Shahr Airport;IR
IIA;53.0919;-9.5700;Inishmaan Aerodrome;IE
IIL;33.5867;46.4047;Ilam Airport;IR
IIS;-4.4997;154.2261;Nissan Island Airport;PG
IJK;56.8333;53.4567;Izhevsk Airport;RU
IKA;35.4161;51.1522;Imam Khomeini International Airport;IR
IKE;70.4956;-51.3031;Ikerasak Heliport;GL
IKI;33.7491;129.7858;Iki Airport;JP
IKK;41.0714;-87.8464;Greater Kankakee Airport;US
IKO;52.9416;-168.8490;Nikolski Air Station;US
IKS;71.6950;128.9000;Tiksi Airport;RU
IKT;52.2667;104.3950;Irkutsk Airport;RU
ILA;13.6970;-89.1166;Illaga Airport;ID
ILD;41.7278;0.5358;Lleida-Alguaire Airport;ES
ILF;56.0614;-95.6139;Ilford Airport;CA
ILG;39.6787;-75.6065;New Castle Airport;US
ILI;59.7544;-154.9110;Iliamna Airport;US
ILM;34.2706;-77.9025;Wilmington International Airport;US
ILN;39.4279;-83.7921;Wilmington Airpark;US
ILO;10.7300;122.5449;Iloilo International Airport;PH
ILP;-22.5889;167.4558;Île des Pins Airport;NC
ILQ;-17.6908;-71.3408;Ilo Airport;PE
ILR;8.4400;4.4939;Ilorin International Airport;NG
ILY;55.6819;-6.2567;Islay Airport;GB
ILZ;49.2333;18.6136;Žilina Airport;SK
IMF;24.7636;93.9031;Imphal Airport;IN
IMK;29.9711;81.8189;Simikot Airport;NP
IML;40.5105;-101.6201;Imperial Municipal Airport;US
IMO;5.4247;7.2094;Zemio Airport;CF
IMP;-5.5303;-47.4578;Prefeito Renato Moreira Airport;BR
IMT;45.8184;-88.1145;Ford Airport;US
INB;16.5170;-88.4330;Independence Airport;BZ
INC;38.4819;106.0092;Yinchuan Airport;CN
IND;39.7173;-86.2944;Indianapolis International Airport;US
INE;30.3833;-9.5500;Chinde Airport;MZ
INF;19.5689;5.7489;In Guezzam Airport;DZ
INH;-23.8667;35.4167;Inhambane Airport;MZ
INI;43.3373;21.8537;Nis Airport;RS
INK;31.7797;-103.2014;Winkler County Airport;US
INL;48.5662;-93.4031;Falls International Airport;US
INN;47.2603;11.3439;Innsbruck Airport;AT
INT;36.1336;-80.2219;Smith Reynolds Airport;US
INU;-0.5467;166.9167;Nauru International Airport;NR
INV;57.5425;-4.0475;Inverness Airport;GB
INW;35.0218;-110.7225;Winslow Lindbergh Regional Airport;US
INZ;27.2536;2.5100;In Salah Airport;DZ
IOA;39.6983;20.8225;Ioannina Airport;GR
IOM;54.0833;-4.6239;Isle of Man Airport;IM
ION;1.5894;18.0467;Impfondo Airport;CG
IOQ;65.5300;-38.9800;Isortoq Heliport;GL
IOS;-14.8150;-39.0333;Bahia - Jorge Amado Airport;BR
IOT;71.2417;-53.5667;Illorsuit Heliport;GL
IPA;-18.8783;169.3081;Ipota Airport;VU
IPC;-27.1647;-109.4219;Mataveri Airport;CL
IPG;-2.9333;-69.6942;Ipiranga Airport;BR
IPH;4.5692;101.0931;Sultan Azlan Shah Airport;MY
IPI;0.8619;-77.6717;San Luis Airport;CO
IPL;32.8342;-115.5787;Imperial County Airport;US
IPN;-19.4706;-42.4878;Usiminas Airport;BR
IPT;41.2418;-76.9211;Williamsport Regional Airport;US
IPU;-14.1333;-39.7333;Ipiaú Airport;BR
IQA;33.7856;42.4412;Al Asad Air Base;IQ
IQM;38.1494;85.5328;Qiemo Airport;CN
IQN;35.7997;107.6028;Qingyang Airport;CN
IQQ;-20.5353;-70.1814;Diego Aracena Airport;CL
IQT;-3.7847;-73.3088;Coronel FAP Francisco Secada Vignetta International Airport;PE
IRA;-10.4490;161.8970;Ngorangora Airport;SB
IRC;65.8279;-144.0762;Circle City /New/ Airport;US
IRD;24.1526;89.0494;Ishurdi Airport;BD
IRE;-11.3394;-41.8522;Irecê Airport;BR
IRG;-12.7883;143.3047;Lockhart River Airport;AU
IRI;-7.6686;35.7521;Iringa Airport;TZ
IRJ;-29.3892;-66.8025;Capitan V A Almonacid Airport;AR
IRK;40.0930;-92.5440;Kirksville Regional Airport;US
IRM;63.2000;64.4333;Igrim Airport;RU
IRN;36.6633;51.4647;Iriona Airport;HN
IRO;10.2333;22.7167;Birao Airport;CF
IRP;2.8276;27.5883;Matari Airport;CD
IRZ;-0.3803;-64.9960;Tapuruquara Airport;BR
ISA;-20.6633;139.4883;Mount Isa Airport;AU
ISB;33.6172;73.1000;Benazir Bhutto International Airport;PK
ISC;49.9133;-6.2917;St. Mary's Airport;GB
ISE;37.8650;30.3819;Süleyman Demirel International Airport;TR
ISG;24.3434;124.1850;Isa Giron Heliport;CO
ISG;24.3434;124.1850;Ishigaki Airport;JP
ISI;-24.2583;144.4250;Isisford Airport;AU
ISK;19.9637;73.8076;Ozar Airport;IN
ISM;28.2898;-81.4370;Kissimmee Gateway Airport;US
ISN;48.1783;-103.6417;Sloulin Field International Airport;US
ISO;35.3314;-77.6088;Kinston Regional Jetport At Stallings Field;US
ISP;40.7953;-73.1002;Long Island Mac Arthur Airport;US
IST;40.9761;28.8139;Atatürk International Airport;TR
ISU;35.5609;45.3147;Sulaymaniyah International Airport;IQ
ITA;-3.1261;-58.4811;Itacoatiara Airport;BR
ITB;-4.2419;-56.0003;Itaituba Airport;BR
ITH;42.4911;-76.4586;Ithaca Tompkins Regional Airport;US
ITK;-9.2000;148.2500;Itokama Airport;PG
ITM;34.7844;135.4391;Osaka International Airport;JP
ITN;-14.8097;-39.2914;Itabuna Airport;BR
ITO;19.7203;-155.0485;Hilo International Airport;US
ITR;-18.4444;-49.2136;Francisco Vilela do Amaral Airport;BR
IUE;-19.0800;-169.9250;Niue International Airport;NU
IUI;73.1997;-56.0472;Innarsuit Heliport;GL
IVC;-46.4150;168.3200;Invercargill Airport;NZ
IVL;68.6108;27.4139;Ivalo Airport;FI
IVR;-29.8894;151.1469;Inverell Airport;AU
IWA;56.9394;40.9408;Ivanovo South Airport;RU
IWD;46.5275;-90.1314;Gogebic Iron County Airport;US
IWJ;34.6762;131.7906;Iwami Airport;JP
IWK;34.1450;132.2442;Iwakuni Marine Corps Air Station;JP
IWO;24.7911;141.3211;Iwo Jima Airport;JP
IXA;23.8770;91.2400;Agartala Airport;IN
IXB;26.6833;88.3333;Bagdogra Airport;IN
IXC;30.6667;76.7833;Chandigarh Airport;IN
IXD;25.4400;81.7367;Allahabad Airport;IN
IXE;12.9619;74.8900;Mangalore International Airport;IN
IXG;15.8586;74.6177;Belgaum Airport;IN
IXH;24.3078;92.0094;Kailashahar Airport;IN
IXI;27.2906;94.0969;North Lakhimpur Airport;IN
IXJ;32.6891;74.8374;Jammu Airport;IN
IXK;21.3144;70.2694;Keshod Airport;IN
IXL;34.1359;77.5465;Leh Kushok Bakula Rimpochee Airport;IN
IXM;9.8336;78.0894;Madurai Airport;IN
IXN;24.0617;91.6075;Khowai Airport;IN
IXP;32.2338;75.6346;Pathankot Air Force Station;IN
IXQ;24.1317;91.8142;Kamalpur Airport;IN
IXR;23.3143;85.3211;Birsa Munda Airport;IN
IXS;24.9117;92.9800;Silchar Airport;IN
IXT;28.1000;95.3833;Pasighat Airport;IN
IXU;19.8636;75.3986;Aurangabad Airport;IN
IXW;22.8167;86.1667;Jamshedpur Airport;IN
IXY;23.1117;70.1014;Kandla Airport;IN
IXZ;11.6467;92.7350;Vir Savarkar International Airport;IN
IYK;35.6588;-117.8295;Inyokern Airport;US
IZA;-21.5131;-43.1731;Presidente Itamar Franco Airport;BR
IZA;-21.5131;-43.1731;Zona da Mata Regional Airport;BR
IZO;35.4137;132.8899;Izumo Airport;JP
JAA;34.3972;70.4950;Jalalabad Airport;AF
JAB;-12.6583;132.8933;Jabiru Airport;AU
JAC;43.6073;-110.7378;Jackson Hole Airport;US
JAD;-32.0992;115.8792;Perth Jandakot Airport;AU
JAF;9.7919;80.0750;Kankesanturai Airport;LK
JAG;28.2842;68.4497;Shahbaz Air Base;PK
JAI;26.8239;75.8033;Jaipur International Airport;IN
JAL;19.4751;-96.7975;El Lencero Airport;MX
JAN;32.3111;-90.0759;Jackson-Medgar Wiley Evers International Airport;US
JAQ;-5.6525;151.5069;Jacquinot Bay Airport;PG
JAU;-11.7833;-75.4833;Francisco Carle Airport;PE
JAV;69.2432;-51.0571;Ilulissat Airport;GL
JAX;30.4941;-81.6879;Jacksonville International Airport;US
JBQ;18.5725;-69.9856;La Isabela International Airport;DO
JBR;35.8317;-90.6464;Jonesboro Municipal Airport;US
JCA;43.5380;7.0390;Croisette Heliport;FR
JCB;-27.1727;-51.5516;Santa Terezinha Airport;BR
JCH;68.8172;-51.1747;Qasigiannguit Heliport;GL
JCK;-20.6703;141.7208;Julia Creek Airport;AU
JCM;-10.1633;-40.5525;Jacobina Airport;BR
JCR;-6.2353;-57.7758;Jacareacanga Airport;BR
JCT;30.5114;-99.7636;Kimble County Airport;US
JCU;35.8992;-5.3383;Ceuta Heliport;ES
JDF;-21.7925;-43.3850;Francisco de Assis Airport;BR
JDH;26.2667;73.0500;Jodhpur Airport;IN
JDN;47.3287;-106.9527;Jordan Airport;US
JDO;-7.2181;-39.2714;Orlando Bezerra de Menezes Airport;BR
JDR;-21.0863;-44.2263;Prefeito Octávio de Almeida Neves Airport;BR
JDZ;29.3386;117.1758;Jingdezhen Airport;CN
JED;21.6811;39.1555;King Abdulaziz International Airport;SA
JEG;68.7218;-52.7847;Aasiaat Airport;GL
JEJ;7.5830;168.9170;Jeh Airport;MH
JEQ;-13.8767;-40.0714;Jequié Airport;BR
JER;49.2079;-2.1955;Jersey Airport;JE
JFK;40.6397;-73.7789;John F Kennedy International Airport;US
JFR;61.9922;-49.6625;Paamiut Airport;GL
JGA;22.4667;70.1667;Jamnagar Airport;IN
JGD;50.3750;124.1170;Jiagedaqi Airport;CN
JGN;39.8569;98.3414;Jiayuguan Airport;CN
JGO;69.2511;-53.5381;Qeqertarsuaq Heliport;GL
JGS;26.8990;114.7370;Jinggangshan Airport;CN
JHB;1.6389;103.6692;Senai International Airport;MY
JHG;21.9750;100.7600;Xishuangbanna Gasa Airport;CN
JHM;20.9636;-156.6730;Kapalua Airport;US
JHS;66.9513;-53.7293;Sisimiut Airport;GL
JHW;42.1533;-79.2581;Chautauqua County-Jamestown Airport;US
JIA;-11.5000;-58.8833;Juína Airport;BR
JIB;11.5473;43.1593;Djibouti-Ambouli Airport;DJ
JIC;31.5000;102.5000;Jinchuan Airport;CN
JIJ;9.3330;42.7170;Wilwal International Airport;ET
JIK;37.6836;26.3478;Ikaria Airport;GR
JIM;7.6710;37.8258;Jimma Airport;ET
JIN;2.8000;32.2667;Jinja Airport;UG
JIQ;29.5252;108.7552;Qianjiang Wulingshan Airport;CN
JIU;29.7330;115.9830;Jiujiang Lushan Airport;CN
JJA;-8.1500;159.3000;Jajao Airport;SB
JJI;-7.1667;-76.7283;Juanjui Airport;PE
JJM;0.0831;37.6497;Mulika Lodge Airport;KE
JJN;24.7964;118.5897;Quanzhou Jinjiang International Airport;CN
JJU;60.7158;-46.0294;Qaqortoq Heliport;GL
JKG;57.7583;14.0692;Jönköping Airport;SE
JKH;38.3408;26.1389;Chios Island National Airport;GR
JKL;36.9600;26.9600;Kalymnos Airport;GR
JKR;26.7107;85.9245;Janakpur Airport;NP
JLN;37.1519;-94.4983;Joplin Regional Airport;US
JLR;23.1833;80.0617;Jabalpur Airport;IN
JLS;-20.2589;-50.5486;Jales Airport;BR
JMK;37.4373;25.3473;Mikonos Airport;GR
JMO;28.7822;83.7225;Jomsom Airport;NP
JMS;46.9297;-98.6782;Jamestown Regional Airport;US
JMU;46.8400;130.4617;Jiamusi Airport;CN
JNA;-15.4742;-44.3858;Januária Airport;BR
JNB;-26.1337;28.2423;OR Tambo International Airport;ZA
JNG;35.2928;116.3464;Jining Qufu Airport;CN
JNN;60.1400;-45.2317;Nanortalik Heliport;GL
JNS;60.9167;-46.0586;Narsaq Heliport;GL
JNU;58.3550;-134.5763;Juneau International Airport;US
JNX;37.0800;25.3680;Naxos Airport;GR
JNZ;41.1014;121.0617;Jinzhou Airport;CN
JOE;62.6589;29.6244;Joensuu Airport;FI
JOG;-7.7833;110.4333;Adi Sutjipto International Airport;ID
JOI;-26.2231;-48.7975;Lauro Carneiro de Loyola Airport;BR
JOK;56.7006;47.9047;Yoshkar-Ola Airport;RU
JOL;6.0542;121.0083;Jolo Airport;PH
JOM;-9.3500;34.8000;Njombe Airport;TZ
JOS;9.6397;8.8692;Yakubu Gowon Airport;NG
JOT;41.5178;-88.1756;Joliet Regional Airport;US
JPA;-7.1189;-34.9508;Presidente Castro Pinto International Airport;BR
JPR;-10.8703;-61.8461;Ji-Paraná Airport;BR
JQA;70.7342;-52.6962;Qaarsut Airport;GL
